小区名称,房价,区域商圈：,详细地址：,建筑类型：,物业费用：,产权类别：,容积率：,总户数：,绿化率：,建筑年代：,停车位：,开发商：,物业公司：,经度,纬度
华业东方玫瑰,54788,通州 梨园,"梨园南街,近临河里路",高层,2.50元/平米/月,商品房住宅,3.12,7300户,35%,2006年,规划机动车停车位数量5800个，其中地上约1000个，地下约4800个。住宅的机动车车位配比为1：0.7。,北京君合百年房地产开发有限公司,深圳华业物业管理公司,116.6915560355816,39.885909106734324
甘露家园,58930,朝阳 甘露园,朝阳路,高层,0.55元/平米/月,商品房住宅,2.50,3500户,30%,1975年,500个,北京通衢房地产开发有限责任公司,宏运承物业管理中心,116.52112960405913,39.923959396933526
天裕昕园(东区),26924,顺义 后沙峪,天北路,高层,3.00元/平米/月,商品房住宅,0.00,暂无数据,暂无数据,暂无数据,暂无数据,北京天竺房地产开发公司,空港物业,116.53443844934222,40.09058951988557
珠江绿洲家园,49663,朝阳 定福庄,建国路18号,小高层|高层|超高层,2.48元/平米/月,商品房住宅,3.80,2300户,60%,2003年,地表车位150元/月 地下车位420元/月，2300个停车位,上海国家863软件专业孵化器基地物业管理有限公司,北京珠江世纪物业管理有限公司,116.56775076172148,39.913965431139495
吉祥里小区,90816,朝阳 朝外大街,朝外北街,多层|高层,2.00元/平米/月,商品房住宅,2.46,3000户,25%,1996年,3500个,上海豪景物业管理有限公司,北京东旭佳业物业管理有限责任公司,116.4449707239399,39.931809384042324
亢山前路1号院,42553,昌平 昌平县城,亢山前路1号,多层,0.00元/平米/月,商品房住宅,0.00,暂无数据,暂无数据,1996年,暂无数据,暂无数据,无,116.25975626763754,40.22217620247564
兴华嘉园西区,22222,通州 马驹桥,兴华南街,多层,0.00元/平米/月,小产权房,1.60,暂无数据,36%,2015年,暂无数据,北京海龙家园房地产开发有限公司,北京市均豪物业管理股份有限公司,116.55850944378759,39.75974899906144
和乔丽致,93577,朝阳 CBD,光华路甲8号,高层,5.50元/平米/月,商品房住宅,4.00,暂无数据,26%,2003年,暂无数据,北京奥德房地产开发有限公司,北京和乔物业管理公司,116.47801713788822,39.91793137429917
杨闸新村,25556,朝阳 管庄,朝阳路,高层,0.00元/平米/月,动迁配套房,0.00,暂无数据,暂无数据,暂无数据,暂无数据,暂无数据,暂无数据,116.6149850128944,39.91731607752669
赵堂子胡同12号院,95164,东城 建国门,赵堂子胡同12号,多层,1.00元/平米/月,商品房住宅,0.00,暂无数据,暂无数据,暂无数据,暂无数据,无,亿方物业,116.43523288829638,39.92007240246081
前进花园一区,36123,顺义 石门,顺沙路,多层,0.50元/平米/月,商品房住宅,1.00,336户,30%,1999年,地面免费停车，无车库，,北京建升房地产公司,北京前进花园物业管理中心,116.6383312544543,40.14388079929007
华远铭悦,58331,通州 土桥,砖厂南里22号,小高层,2.40元/平米/月,商品房住宅,2.20,1200户,30%,2002年,799个(1:0.7),北京华和房地产开发有限公司,北京圣瑞物业服务有限公司铭悦分公司,116.70360895993117,39.877796064468754
石园东社区,38761,顺义 石园,石园大街,多层,0.50元/平米/月,商品房住宅,1.13,2100户,20%,2015年,1800个，免费停车充分够用，小区保安很负责人，非常安全。,大龙地产开发有限公司,业主自管,116.67353333213492,40.11652771972272
北京新天地(西区),56087,朝阳 管庄,朝阳路7号,小高层|高层,1.98元/平米/月,商品房住宅,3.10,暂无数据,30%,2004年,暂无数据,杉岛咖啡、诺诗雅美容,安泰祥物业管理有限公司,116.61147200953651,39.92032409599439
荧屏里,49661,朝阳 大山子,酒仙桥北路,高层,0.00元/平米/月,商品房住宅,3.60,440户,30%,2000年,总数0个 地上车位0个,暂未获知,无,116.46332041059222,39.963958507193546
四路通住宅小区,53000,朝阳 常营,弘燕东路,多层,2.84元/平米/月,商品房住宅,0.00,暂无数据,30%,2005年,150元/车位/月,暂未获知,-,115.97887471521861,39.73099213398251
佟馨家园A区,32703,大兴 黄村,永华路,高层,1.20元/平米/月,商品房住宅,0.00,暂无数据,暂无数据,暂无数据,暂无数据,暂无数据,暂无数据,116.31858785224944,39.731793019865485
华业东方玫瑰,54788,通州 梨园,"梨园南街,近临河里路",高层,2.50元/平米/月,商品房住宅,3.12,7300户,35%,2006年,规划机动车停车位数量5800个，其中地上约1000个，地下约4800个。住宅的机动车车位配比为1：0.7。,北京君合百年房地产开发有限公司,深圳华业物业管理公司,116.6915560355816,39.885909106734324
华瀚福园(C区),30000,朝阳 东坝,东坝中路,多层,1.20元/平米/月,经济适用房,0.00,暂无数据,29%,暂无数据,暂无数据,华翰投资集团,和泓物业有限公司,116.57938696214498,39.96679310324039
景欣园,41085,通州 九棵树,京津公路,小高层,1.80元/平米/月,商品房住宅,1.80,750户,30%,2001年,充足,通州区住房和城乡建设委员会,北京东景博通物业管理有限公司,116.66960216756215,39.89597487144333
燕丹村,26666,昌平 天通苑,大海路,多层,1.50元/平米/月,小产权房,0.00,暂无数据,30%,暂无数据,暂无数据,北京城建三房地产开发有限公司,北京燕城苑物业管理公司,116.44525324102278,40.10409293488529
金鑫苑小区,18610,房山 窦店,大窦路,多层,0.42元/平米/月,商品房住宅,1.20,1180户,45%,2001年,地上车位1：1，车位免费,北京聚源置业有限公司,北京首钢物业管理公司,116.07333373954299,39.67440991731635
通景园,38909,通州 九棵树,九棵树西路,高层,2.50元/平米/月,商品房住宅,0.00,暂无数据,42%,2010年,595,北京社团住宅合作社,北京信铭物业管理有限公司,116.64912358668174,39.884217769795974
白盆窑天兴家园,52216,丰台 科技园区,樊羊路,多层,1.80元/平米/月,商品房住宅,0.00,暂无数据,暂无数据,2012年,暂无数据,暂无数据,暂无数据,116.31793235871882,39.82916183895063
城南嘉园益嘉园,51262,丰台 马家堡,马家堡西路,多层,1.30元/平米/月,单位集体自建房,1.87,1267户,34%,2002年,地上车位150/元、地下车位350/元,上海寰舟水产有限公司,北京京丰物业管理有限责任公司,116.37904695714026,39.838821516855816
嘉园一里,64194,丰台 马家堡,角门北路,高层,0.00元/平米/月,商品房住宅,0.00,暂无数据,暂无数据,暂无数据,暂无数据,暂无数据,暂无数据,116.37438205662694,39.859914320507855
后南仓小区,50204,通州 通州北苑,新城南街,多层,0.60元/平米/月,商品房住宅,1.17,1674户,30%,1990年,250,通州区住房和城乡建设委员会,北京通运达物业管理有限公司,116.65802067394421,39.90801829621002
中关村港沟16号院,108000,海淀 苏州桥,港沟路16号,多层,0.50元/平米/月,商品房住宅,0.00,暂无数据,暂无数据,1978年,暂无数据,无,北京亿方物业管理有限责任公司,116.30964243615054,39.98662567003797
山语间(保利西山林语),58911,海淀 马连洼,黑龙潭路,多层,0.40元/平米/月,商品房住宅,0.00,3315户,30%,0000-00-00年,地下停车场,暂无数据,暂无数据,116.2217337199608,40.044811468348676
天通苑西三区,36955,昌平 天通苑,立汤路,多层|高层,1.25元/平米/月,经济适用房,3.50,2600户,30%,2015年,地上150/月，地下车库180元,北京顺天通房地产开发有限公司,北京顺天通物业管理公司,116.41350901074175,40.10863904478827
天裕昕园(西区),22000,顺义 中央别墅区,天北路,高层,1.89元/平米/月,商品房住宅,0.00,暂无数据,暂无数据,暂无数据,暂无数据,北京市天竺房地产开发公司,空港物业集团,116.5298764048098,40.09016311762757
高巢小区,78027,海淀 清河,龙岗路35号,高层,2.45元/平米/月,商品房住宅,4.30,645户,10%,2005年,车位充足，地上车位150元/月，地上非常少，基本是地下的260元/月,北京恒乾房地产开发有限公司,北京恒乾物业,116.36506743696343,40.03669828224955
首创禧瑞都,147007,朝阳 CBD,朝阳路139号,高层,7.98元/平米/月,商品房住宅,3.50,654户,31%,2015年,共395个,"上海交通投资(集团)有限公司,上海佳绿绿化有限公司",北京仲量联行物业管理服务有限公司,116.47191036720083,39.92452469548403
盛今大厦,60776,丰台 六里桥,莲宝路1号,高层,2.00元/平米/月,商品房住宅,1.33,暂无数据,35%,2001年,暂无数据,上海锦森物业管理有限公司,北京中视盛元物业有限公司,116.30713409767503,39.89523918231763
奥北中心北区,30000,昌平 立水桥,中东路400号,高层,1.78元/平米/月,办公,4.37,暂无数据,33%,2008年,暂无数据,"上海海林贸易有限公司,上海羽西科技信息有限公司",北京富瑞物业管理有限公司,116.41634091886195,40.06553306059169
双河南里小区,34875,大兴 黄村,京开路,多层,0.70元/平米/月,商品房住宅,1.43,1200户,25%,2015年,150元/车位・月,北京顺义新城建设开发有限公司,北京天宝伟业物业管理有限责任公司,116.35382586215046,39.739729048708256
和平门小区,129871,西城 西单,西绒线胡同10号,多层,0.65元/平米/月,单位集体自建房,0.00,暂无数据,暂无数据,2000年,充足,"阿克苏若贝尔,古驰贸易有限公司",北京侬苑物业服务中心,116.38660269461523,39.90927845485987
东亚印象台湖,41550,通州 台湖镇,台湖大街23号,高层,2.50元/平米/月,商品房住宅,1.96,暂无数据,32%,2014年,暂无数据,北京硕日新宇投资有限公司,北京东亚时代物业管理有限公司,116.65256122220731,39.8445778322157
牡丹园东里,102689,海淀 牡丹园,北土城路,多层|高层,0.68元/平米/月,商品房住宅,1.33,1772户,30%,2015年,停车位是120元/月,上海显贵物业管理有限公司,北京海淀区志新物业管理公司,116.40450520478468,39.984943888839986
石门营新区四区,27436,门头沟 永定,紫金北路,多层,0.00元/平米/月,动迁配套房,0.00,暂无数据,12%,2001年,暂无数据,庆扬贸易有限公司,保利物业管理(北京)有限公司,116.1088301919392,39.893345189046855
兴华东里,0,大兴 兴丰大街,富强路,多层,0.00元/平米/月,小产权房,0.00,暂无数据,暂无数据,暂无数据,暂无数据,暂无数据,暂无数据,116.34174257507465,39.74161177920552
大羊毛胡同小区,93342,东城 建国门,大羊毛胡同,低层,0.00元/平米/月,商品房住宅,0.00,24户,10%,1953年,暂无数据,暂无数据,暂无数据,116.4205602598423,39.92860144255692
新翠景园,44357,通州 九棵树,云景南大街,多层|小高层,2.40元/平米/月,商品房住宅,1.70,1700户,40%,2005年,地上150个，地下200个,北京市紫金恒房地产开发有限责任公司,新翠景园物业管理有限公司,117.10343508563814,40.15655136467106
左家庄南里,75108,朝阳 国展,左家庄西街,高层,0.58元/平米/月,商品房住宅,3.30,3000户,25%,1990年,地上300,北京友谊辉志房地产开发公司,铭月豪物业公司,116.44906654791264,39.96025559575882
劲松西社区(劲松八区),60937,朝阳 劲松,劲松路,多层,0.50元/平米/月,商品房住宅,1.90,1988户,30%,2000年,暂无数据,"阿克苏若贝尔,古驰贸易有限公司",朝阳区房屋管理局第一管理所,116.4780842413098,39.887337149510756
盛今大厦,60776,丰台 六里桥,莲宝路1号,高层,2.00元/平米/月,商品房住宅,1.33,暂无数据,35%,2001年,暂无数据,上海锦森物业管理有限公司,北京中视盛元物业有限公司,116.30713409767503,39.89523918231763
龙门新区A9小区,22000,门头沟 门头沟周边,龙门西街,多层|小高层,0.65元/平米/月,商品房住宅,0.00,暂无数据,暂无数据,2013年,暂无数据,上海蒂沙物业管理有限公司,北京奥和物业管理有限公司,116.0892253029978,39.95108579286173
汇福悦榕湾,21394,北京周边 燕郊,燕顺路,小高层,2.80元/平米/月,商品房住宅,2.50,4000户,35%,2017年,车位充足，地上907；地下：18220,上海瑞强物业,仲量联行物业管理顾问公司,117.27494554733477,40.6525181474141
六合园,51046,石景山 鲁谷,鲁谷南路,多层,0.60元/平米/月,商品房住宅,2.00,860户,30%,1994年,车位500个,保利(北京)房地产开发有限公司,北京芳星园物业管理中心,116.22495719945279,39.90362744835935
和谐家园(一区),44909,昌平 回龙观,龙锦三街,多层,0.64元/平米/月,商品房住宅经济适用房,1.56,1864户,30%,2005年,150元/车位/月，1600/车位/年,北京首开天鸿集团有限公司,北京天鸿宝地物业管理经营有限公司,116.36687788188823,40.09142437735129
大悦公寓,48148,朝阳 朝青板块,朝阳北路99号,高层,6.00元/平米/月,办公,4.50,624户,35%,2010年,停车位:1:3，共2024个,上海秉福物业服务有限公司,北京凯莱物业管理有限公司,116.5263645692491,39.93058712807028
香江花园,105379,朝阳 来广营,香江北路1号,低层,0.00元/平米/月,商品房住宅,0.00,暂无数据,暂无数据,暂无数据,暂无数据,暂无数据,暂无数据,116.52578498253405,40.038409091615996
北坞嘉园,82001,海淀 西山,北坞嘉园北小街,多层,0.80元/平米/月,商品房住宅,1.20,1668户,20%,2010年,1:1,上海总泉物业管理有限公司,上海总泉物业管理有限公司,116.5042052587595,39.99329357665045
羊肉胡同120号院,134139,西城 金融街,羊肉胡同120号,多层,0.50元/平米/月,商品房住宅,0.00,310户,暂无数据,1990年,20,暂未获知,业主自管,116.37242393027628,39.928412007158606
奥北中心南区,34997,昌平 立水桥,汤立路201号,高层,1.78元/平米/月,办公,3.00,暂无数据,30%,2003年,暂无数据,上海制皂,北京富瑞物业管理有限公司,116.41765792457012,40.06034036698043
山水汇豪苑(北区),24341,房山 窦店,窦店北路,多层,0.90元/平米/月,商品房住宅,1.32,200户,35%,2002年,地上车位，车位费暂不收取,北京汇豪房地产开发建设有限公司,北京汇豪嘉业高新科技发展有限公司,116.07875097092091,39.65850907906544
中海安德鲁斯庄园(东区),54811,朝阳 百子湾,高碑店路181号,低层,0.00元/平米/月,商品房住宅,0.80,暂无数据,36%,2006年,暂无数据,上海尊木汇文化投资有限公司,北京中海物业管理有限公司,116.53116241897789,39.89053486003122
华业东方玫瑰,54788,通州 梨园,"梨园南街,近临河里路",高层,2.50元/平米/月,商品房住宅,3.12,7300户,35%,2006年,规划机动车停车位数量5800个，其中地上约1000个，地下约4800个。住宅的机动车车位配比为1：0.7。,北京君合百年房地产开发有限公司,深圳华业物业管理公司,116.6915560355816,39.885909106734324
双河南里小区,34875,大兴 黄村,京开路,多层,0.70元/平米/月,商品房住宅,1.43,1200户,25%,2015年,150元/车位・月,北京顺义新城建设开发有限公司,北京天宝伟业物业管理有限责任公司,116.35382586215046,39.739729048708256
农光里小区,64948,朝阳 劲松,南磨房路,多层|高层,1.50元/平米/月,商品房住宅,2.10,7484户,40%,1985年,1000个左右 150/月,上海世华物业管理有限公司,大盟物业,116.47097262607896,39.888028772341514
颐阳山水居西区,28619,海淀 温泉,温泉路,多层,1.00元/平米/月,小产权房,1.53,暂无数据,30%,1995年,暂无数据,庆扬贸易有限公司,保利物业管理(北京)有限公司,116.19892017356828,40.04532660116391
沙滩后街55号院,119218,东城 沙滩,沙滩后街55号,多层,0.00元/平米/月,单位集体自建房,0.00,暂无数据,暂无数据,2015年,暂无数据,"上海吉广文化传媒有限公司,上海智奥会展有限公司",单位自管,116.40680828045116,39.932738181514146
枣园北里,39913,大兴 黄村,兴业大街,多层,0.70元/平米/月,商品房住宅,1.10,720户,40%,2001年,150元/车位・月,德必文化创意服务有限公司,北京金冠物业管理有限公司,116.32993425931542,39.759658033040274
天坛东里(中区),87892,东城 天坛,天坛东路,多层,0.50元/平米/月,商品房住宅,1.60,2040户,30%,1980年,免费停车位,"阿克苏若贝尔,古驰贸易有限公司",单位自管物业,116.42608106584554,39.88220678264746
曙光花园望河园,87738,海淀 车道沟,彰化路7号,高层,1.00元/平米/月,商品房住宅,2.06,544户,30%,2004年,890个,上海家能实业有限公司,北京燕桥物业管理有限公司,116.29871167504403,39.94894382512917
广安康馨家园(南区),48838,丰台 卢沟桥,丰仪路1号,高层,2.17元/平米/月,商品房住宅,4.00,暂无数据,30%,1998年,一共2522个停车位,广安置业房地产开发有限公司,北京中商和旭物业管理有限公司,116.23557768583616,39.881679197518785
B悦国际,25000,大兴 生物医药基地,天华大街,高层,2.98元/平米/月,办公,2.50,3061户,35%,2014年,共2062个，其中地下1919个停车位，地上143个停车位。车位配比为1：0.67,北京锦荣物业管理有限公司,北京晟邦物业服务公司,116.31989973761623,39.69223606083886
陶家湾小区,50000,朝阳 高碑店,惠河南街,多层,0.00元/平米/月,小产权房,0.00,暂无数据,40%,暂无数据,暂无数据,暂无数据,暂无数据,116.5489540782474,39.91135505401313
天通苑西二区,40781,昌平 天通苑,立汤路,多层,1.25元/平米/月,经济适用房,1.10,5760户,30%,2015年,地上停车位150元/月 地下停车180元/月,北京顺天通房地产开发有限公司,北京顺天通物业管理公司,116.41350901074175,40.10863904478827
巩华家园北二村,28000,昌平 沙河,顺沙路8号,高层,1.00元/平米/月,小产权房,0.00,暂无数据,暂无数据,暂无数据,暂无数据,北京市昌平房地产开发有限公司,北京东方惠峰物业管理有限公司,116.51063874316085,40.17540955024187
永乐(东区),52603,石景山 鲁谷,鲁谷大街,多层,0.50元/平米/月,商品房住宅其他,1.00,7000户,18%,1990年,地上车位1000个、150元/月,"阿克苏若贝尔,古驰贸易有限公司",芳星园物业有限公司,116.23924295197799,39.90624427977269
烟树园小区,96307,海淀 世纪城,蓝靛厂西路,多层,1.20元/平米/月,商品房住宅,2.20,11000户,35%,2004年,300元/车位/月,北京金源鸿大房地产开发有限公司,北京世纪颐和物业管理有限责任公司,116.28526062799871,39.96868311373056
京旺家园二区,29696,朝阳 朝阳周边,金港南路,多层,1.20元/平米/月,动迁配套房,0.00,暂无数据,30%,2000年,暂无数据,"上海竞翔汽车零件有限公司,上海佳化有限公司",北京华特物业管理有限公司,116.57926813878365,40.01856829158413
神龙辛屯小区,38501,通州 马驹桥,辛房路,多层,0.65元/平米/月,商品房住宅,1.80,暂无数据,30%,2001年,1:0.5,北京伯雅房地产开发有限公司,神龙物业,116.55037073568072,39.72417904752747
北三环中路40号社区,110138,海淀 北太平庄,励耘路,板楼、塔楼、多层、高层,1.00元/平米/月,商品房住宅,0.00,454户,30%,2000年,车位充足,暂未获知,-,116.3698634900812,39.9731961016707
东铁营横一条小区,56108,丰台 刘家窑,东铁营横一条,多层,1.00元/平米/月,商品房住宅,1.89,600户,15%,2000年,230,"上海芝阁信息科技服务有限公司,上海窗钩厂",上海叶达贸易发展有限公司,116.43768896964546,39.86292979424595
鸿博家园(二期F区),43774,朝阳 小红门,红坊路,高层,0.00元/平米/月,商品房住宅,0.00,暂无数据,暂无数据,暂无数据,暂无数据,暂无数据,暂无数据,116.47049230212279,39.83158552709728
西山甲一号,57955,丰台 长辛店,长顺二路,高层,4.31元/平米/月,商品房住宅,2.50,暂无数据,40%,2018年,暂无数据,北京金隅房地置业有限公司,北京金海燕物业,116.19400401700382,39.86874305010719
西三环北路82号院,97130,海淀 航天桥,西三环北路82号,高层,1.50元/平米/月,商品房住宅,2.80,300户,45%,1995年,150元/车位/月,国科实业发展有限公司,业主自管,116.46671905965867,39.958624386904134
华龙苑中里(南区),60014,昌平 霍营,黄平路,多层,0.80元/平米/月,商品房住宅,0.00,暂无数据,暂无数据,1992年,暂无数据,北京三江鸿泰房地产开发有限公司,北京市华龙苑物业管理中心,116.37656323223572,40.08359245662851
建材城西一里,64060,海淀 西三旗,建材城西路,多层,0.83元/平米/月,商品房住宅,1.00,1900户,30%,2000年,充足,"富兴园置业发展有限公司,上海绿化有限公司",北京华远物业管理公司,116.37069361420296,40.067904011128306
加州水郡(西区),33764,房山 长阳,昊天北大街48号,高层,1.70元/平米/月,商品房住宅,3.00,15000户,40%,2000年,150元/位・月 。地下车位180元/位・月，可购买，有产权证。,上海交大科技创业研究中心,北京永隆国际酒店物业管理有限公司,116.16881678813176,39.774246200518995
和平里七区社区,108498,东城 和平里,青年沟路,多层,0.50元/平米/月,商品房住宅单位集体自建房,2.00,9000户,10%,1981年,车位充足，无停车费,"阿克苏若贝尔,古驰贸易有限公司",北京首华物业管理有限公司,116.42812426172797,39.966986233305576
北京新天地(东区),56503,朝阳 管庄,朝阳路5号,高层,1.98元/平米/月,商品房住宅,3.11,5000户,30%,2004年,车位费：地上150元/月，车位数：3250个 车位配比：0.56:1,上海大博汽车有限公司,天诚广厦物业管理有限公司,116.61318552729679,39.92061903871046
建安里小区,38043,昌平 昌平县城,府学路,多层,0.65元/平米/月,商品房住宅,1.80,330户,30%,1995年,充足,北京天湖房产,北京肆维基业物业管理有限公司,116.26108596909751,40.22867263145121
富力又一城(C区),58164,朝阳 豆各庄,大鲁店北路,高层,2.20元/平米/月,商品房住宅,2.60,暂无数据,35%,2004年,暂无数据,北京华恩房地产开发有限公司,北京恒富物业服务有限公司,116.56444194320603,39.853054947808104
京投万科新里程(南区),42341,房山 长阳,阜盛大街59号,小高层,2.50元/平米/月,商品房住宅,2.00,1066户,30%,2013年,一期全部在地上，比例约为商品房1:0.5，限价房1:0.4,紫泰物业管理有限公司,北京万科物业服务有限公司,116.19446080535565,39.73832017450368
小羊宜宾胡同小区,112154,东城 东单,小羊宜宾胡同,低层,0.80元/平米/月,商品房住宅,0.00,暂无数据,30%,1990年,总数0个 地上车位0个,北京城市建设开发集团总公司,业主自管,116.4205602598423,39.92860144255692
海户西里31号院,58151,丰台 洋桥,马家堡东路,多层|高层,1.20元/平米/月,商品房住宅,2.30,352户,42%,1995年,车位充足,暂未获知,北京永祥泰物业管理中心,116.39490411549403,39.85765738740732
世华龙樾一里,94576,海淀 清河,后屯路,高层,3.49元/平米/月,商品房住宅,2.40,5217户,30%,2014年,共566个车位，车位配比1:1.23,上海显贵物业管理有限公司,北京城承物业管理有限责任公司,116.3577779572416,40.05231506268809
首城国际,93740,朝阳 双井,广渠路36号,高层,2.83元/平米/月,商品房住宅,3.20,3820户,30%,2010年,A、B、D区车位和住宅比例0.8:1；C区车位和住宅比例2:1,上海维风企业管理有限公司,北京市嘉宝物业管理有限公司,116.47585868940884,39.89867212255458
玉泉西街甲3号院,53147,石景山 古城,玉泉西街甲3号,多层,0.00元/平米/月,商品房住宅经济适用房,1.40,864户,25%,1983年,1：1,"阿克苏若贝尔,古驰贸易有限公司",高能所房管科,116.25207389872975,39.917929921665795
安慧里(一区),74943,朝阳 亚运村,慧忠路,多层|高层,1.50元/平米/月,商品房住宅,2.60,2500户,35%,1990年,地上非固定车位120元/月。固定车位150元/月,"华夏银行上海分行,新时代证券股份有限公司上海分公司",北辰信诚物业管理公司,116.42058011239409,39.99932920867382
新华街七里,53306,丰台 看丹桥,新华街,高层,0.50元/平米/月,商品房住宅,3.80,800户,30%,1996年,车位价格大车150元/月、小车120元/,京铁丰建开发有限公司,北京京铁丰建物业管理公司,116.29302064014665,39.848603909907844
拾景名苑,37313,石景山 古城,体育场西街20号,高层,0.00元/平米/月,商品房住宅,0.00,暂无数据,暂无数据,暂无数据,暂无数据,暂无数据,暂无数据,116.20754821833052,39.907710776594165
丰汇园小区,196741,西城 金融街,太平桥大街84号,多层,3.60元/平米/月,商品房住宅,1.88,700户,30%,1999年,出租地下400元/月，地上150元/月，出售20万元左右/位,北京兆泰房地产开发公司,北京丰汇物业管理有限责任公司,116.37407636326189,39.92151617132381
武夷花园牡丹园,53788,通州 武夷花园,通胡大街,小高层,0.65元/平米/月,商品房住宅,2.00,2500户,44%,2001年,不带锁车位60/月，带锁车位80/月。,北京海鸿物业经营管理有限公司,北京武夷物业管理有限公司,116.70356314635018,39.92488601929221
吉祥里小区,90816,朝阳 朝外大街,朝外北街,多层|高层,2.00元/平米/月,商品房住宅,2.46,3000户,25%,1996年,3500个,上海豪景物业管理有限公司,北京东旭佳业物业管理有限责任公司,116.4449707239399,39.931809384042324
城锦苑,60684,朝阳 北苑,双营路6号,多层|高层,2.39元/平米/月,商品房住宅,1.26,暂无数据,30%,2014年,200,"快板电子科技有限公司,上海久誉软件系统有限公司",北京金源顺达物业管理有限责任公司,116.43017176947687,40.04275075976217
中关园,27757,海淀 北京大学,成府路,多层,2.90元/平米/月,商品房住宅,1.20,500户,20%,1983年,停车位380个，出租300-600元/月,"贝古设计事务所,中国建筑与室内设计师网",-,116.32499600443543,39.99786952701159
顺四条37号院,51492,丰台 刘家窑,顺四条37号,高层,1.00元/平米/月,商品房住宅,3.00,360户,10%,1992年,地面停车,天鸿开发,北京天鸿宝地物业管理经营公司,116.43359386431713,39.86045834380541
天通苑西二区,40781,昌平 天通苑,立汤路,多层,1.25元/平米/月,经济适用房,1.10,5760户,30%,2015年,地上停车位150元/月 地下停车180元/月,北京顺天通房地产开发有限公司,北京顺天通物业管理公司,116.41350901074175,40.10863904478827
沙河一通小区,43648,昌平 沙河,沙阳路,多层|高层,0.60元/平米/月,商品房住宅,1.50,374户,30%,2001年,暂无数据,北京顺天通房地产开发有限公司,北京百姓人家物业管理中心,116.2626210833835,40.12815209307252
宋家庄家园,53938,丰台 宋家庄,石榴庄路,多层|高层,1.24元/平米/月,商品房住宅,2.27,800户,28%,2007年,180,北京建工地产开发有限公司,北京建工物业服务有限公司,116.43295732503277,39.853638768789594
华纺易城,71751,朝阳 朝青板块,青年路29号,小高层,2.30元/平米/月,商品房住宅,2.46,2930户,40%,2005年,一期户型面积120平方米1:0.8，120平方米以上1:1,上海第 一太平戴维斯物业管理有限公司,北京华纺正金物业管理有限公司,116.5214792245636,39.9362757945657
首开龙湖天璞,101619,朝阳 东坝,驹子房路,小高层,0.00元/平米/月,商品房住宅,2.20,暂无数据,30%,2017年,暂无数据,上海地铁运营有限公司,北京龙湖物业服务有限公司,116.56056764137205,39.97398195418275
奥林匹克花园(一期),74485,朝阳 东坝,东坝中路,多层|小高层,1.50元/平米/月,商品房住宅,2.10,846户,40%,2003年,地面车位150元/月，地下车位300元/月,上海盛顺餐饮有限公司,北京奥园物业管理有限公司,116.55186000674163,39.968370062566024
光辉里,76220,朝阳 CBD,大望路,高层,1.80元/平米/月,商品房住宅,0.00,暂无数据,30%,2015年,暂无数据,北京房地产开发有限公司,北京红星酒厂股份有限公司,116.48420403742708,39.91492207389635
高杨树北里,55260,朝阳 东坝,驹子房路,多层,0.43元/平米/月,商品房住宅,1.90,1000户,30%,2004年,800,北京高苑房地产开发有限公司,北京高苑房地产开发有限公司,116.55715902111443,39.95521044594568
西西庄园,32226,通州 果园,通朝大街,小高层,0.98元/平米/月,商品房住宅,2.10,暂无数据,31%,2010年,充足,庆扬贸易有限公司,百万庄物业管理有限公司,116.65171717435015,39.898886965307206
炫立方,27500,顺义 顺义城区,金关北二路2号,小高层|高层,2.96元/平米/月,办公,2.21,816户,30%,2014年,406个车位（含部分机械车位）,北京开源易通仓储有限公司,北京首华物业管理有限公司,116.61917803352331,40.12222208955338
蓝调沙龙,50050,通州 九棵树,怡乐北街,多层|高层,2.50元/平米/月,商品房住宅,1.50,暂无数据,35%,2004年,暂无数据,北京天行雅坤房地产开发有限公司,北京燕科物业管理有限责任公司,116.65777606535383,39.89322257000318
朝阳无限芳菁苑,59413,朝阳 甘露园,朝阳路,多层,1.92元/平米/月,商品房住宅,0.00,暂无数据,暂无数据,2004年,暂无数据,上海净空环保工程有限公司,北京市京工物业管理有限责任公司,116.5181639382485,39.92420860474176
瀛海朗苑,30000,大兴 瀛海镇,瀛裕街,高层,0.00元/平米/月,经济适用房,0.00,暂无数据,暂无数据,暂无数据,暂无数据,暂无数据,暂无数据,116.44905001909126,39.77219030380257
DBC加州小镇(C区),52111,通州 土桥,颐瑞中二路,小高层|高层,2.20元/平米/月,商品房住宅,2.00,暂无数据,30%,2010年,暂无数据,北京卓越房地产开发有限公司,北京泛茂物业管理有限公司,116.68976634151409,39.87055701657621
天竺家园,31645,顺义 天竺,李天路,多层,0.30元/平米/月,商品房住宅,2.13,4000户,30%,2009年,1：1,北京市天竺房地产开发公司,北京顺义区天竺新村物业管理公司,116.5947021727846,40.04883279700399
亮马嘉园,64363,朝阳 酒仙桥,酒仙桥路,小高层|高层,2.30元/平米/月,商品房住宅,2.00,583户,30%,2006年,地上100个150元/月，地下400元/月,铭大物业管理有限公司,北京市均豪物业管理股份有限公司,116.50652180900863,39.96635216464175
清岚花园西区,34905,顺义 后沙峪,俗安路,多层,0.98元/平米/月,商品房住宅,1.17,2096户,30%,2007年,自动停车,上海增沁物业管理有限公司,北京裕鑫龙腾物业管理公司,116.54582348354513,40.12605799729349
圣世一品,86199,朝阳 东大桥,向军北里28号,高层,5.98元/平米/月,商品房住宅,3.90,530户,30%,2010年,336,北京市双建房地产开发有限公司,北京金地格林物业管理公司,116.46548712348228,39.93133598982528
土桥PLUS,40575,通州 土桥,九棵树东路,高层,3.00元/平米/月,商品房住宅,2.80,暂无数据,30%,2017年,暂无数据,北京建安经营开发有限公司,北京银达物业管理有限责任公司,116.70496297582638,39.87256703292507
空港吉祥花园,49433,顺义 中央别墅区,"安泰大街,近裕华路",小高层,2.20元/平米/月,商品房住宅,0.00,暂无数据,暂无数据,2007年,暂无数据,北京空港天恒房地产开发有限公司,北京天竺空港物业管理有限公司,116.56012073438083,40.09301865044828
金色漫香苑,43756,昌平 北七家,天权路2号,多层,2.80元/平米/月,商品房住宅,1.50,1320户,35%,2013年,地上453个车位，地下969个车位，共1422个车位。,上海德同物业,北京金融街物业管理有限责任公司,116.43287297414537,40.136793075877456
铁路危改小区,88087,西城 西直门,西直门北大街,多层|小高层|高层,0.50元/平米/月,商品房住宅,1.30,暂无数据,35%,2010年,暂无数据,铁路建设有限公司,业主自管,116.36185653374856,39.9509827753028
西马庄园,38593,通州 八里桥,滨惠北四街,多层,0.00元/平米/月,商品房住宅,2.00,1100户,45%,2001年,每户一位，1：1,北京市裕发房地产开发集团,北京中航大北物业管理有限公司,116.63650302308041,39.918474103622785
润枫水尚(西区),77493,朝阳 朝青板块,青年路西里5号,高层,2.98元/平米/月,商品房住宅,3.00,暂无数据,30%,2009年,暂无数据,北京润丰房地产开发有限公司,北京润丰物业管理有限公司,116.51732132768014,39.933431347997995
和乔丽致,93577,朝阳 CBD,光华路甲8号,高层,5.50元/平米/月,商品房住宅,4.00,暂无数据,26%,2003年,暂无数据,北京奥德房地产开发有限公司,北京和乔物业管理公司,116.47801713788822,39.91793137429917
北京壹号院,170000,朝阳 朝阳公园,农展北路8号,多层|高层,17.00元/平米/月,商品房住宅,2.35,暂无数据,30%,2016年,暂无数据,澳洲天地澳祥健康母婴康复中心,北京高力国际物业服务有限公司,116.4753564467982,39.94827667618096
观音惠园,49686,朝阳 四惠,高碑店路,多层,0.60元/平米/月,商品房住宅经济适用房,1.46,1090户,35%,2006年,150元/车位/月,"北京京海集团上海有限公司,上海智达科技有限公司",北京康居安物业管理有限公司,116.52762399357408,39.89635613684839
城南嘉园益星园,75634,丰台 马家堡,马家堡西路,多层|小高层,1.95元/平米/月,商品房住宅,1.90,暂无数据,34%,2004年,暂无数据,上海寰舟水产有限公司,北京京丰物业管理有限责任公司,116.37544160797594,39.84191133013377
德鑫嘉园,37272,丰台 新宫,槐房北路2号,多层|小高层|高层,0.00元/平米/月,小产权房,0.00,暂无数据,38%,2005年,暂无数据,暂无数据,无,116.37952907770746,39.822622791118356
大兴金茂悦,38181,大兴 大兴周边,龙江路,小高层,0.00元/平米/月,商品房住宅,0.00,暂无数据,暂无数据,暂无数据,暂无数据,暂无数据,暂无数据,116.49062171165146,39.760358856544805
首城国际,93740,朝阳 双井,广渠路36号,高层,2.83元/平米/月,商品房住宅,3.20,3820户,30%,2010年,A、B、D区车位和住宅比例0.8:1；C区车位和住宅比例2:1,上海维风企业管理有限公司,北京市嘉宝物业管理有限公司,116.47585868940884,39.89867212255458
天恒花园,40715,顺义 天竺,天柱路,多层,1.80元/平米/月,商品房住宅,1.19,249户,40%,2006年,地上150元/月,北京空港天恒房地产开发有限公司,北京天竺空港物业管理有限公司,116.56679541381162,40.07484355534475
后南仓小区,50204,通州 通州北苑,新城南街,多层,0.60元/平米/月,商品房住宅,1.17,1674户,30%,1990年,250,通州区住房和城乡建设委员会,北京通运达物业管理有限公司,116.65802067394421,39.90801829621002
中关村港沟16号院,108000,海淀 苏州桥,港沟路16号,多层,0.50元/平米/月,商品房住宅,0.00,暂无数据,暂无数据,1978年,暂无数据,无,北京亿方物业管理有限责任公司,116.30964243615054,39.98662567003797
山语间(保利西山林语),58911,海淀 马连洼,黑龙潭路,多层,0.40元/平米/月,商品房住宅,0.00,3315户,30%,0000-00-00年,地下停车场,暂无数据,暂无数据,116.2217337199608,40.044811468348676
天通苑西三区,36955,昌平 天通苑,立汤路,多层|高层,1.25元/平米/月,经济适用房,3.50,2600户,30%,2015年,地上150/月，地下车库180元,北京顺天通房地产开发有限公司,北京顺天通物业管理公司,116.41350901074175,40.10863904478827
世茂维拉,38889,房山 长阳,东环路,多层|高层,2.80元/平米/月,商品房住宅,2.30,606户,31%,2015年,共780个停车位,贝思特物业,上海世茂南京物业服务有限公司北京第二分公司,116.18407298009937,39.75002597358078
高巢小区,78027,海淀 清河,龙岗路35号,高层,2.45元/平米/月,商品房住宅,4.30,645户,10%,2005年,车位充足，地上车位150元/月，地上非常少，基本是地下的260元/月,北京恒乾房地产开发有限公司,北京恒乾物业,116.36506743696343,40.03669828224955
高楼金第,26112,通州 梨园,群芳南街,高层,1.80元/平米/月,商品房住宅,2.50,800户,31%,2010年,车位充足1180个,暂无数据,高楼金第小区物业管理办公室,116.6939778672365,39.87015712436405
新建村,35135,通州 物资学院路,物资学院路3号,多层,0.00元/平米/月,小产权房,0.00,暂无数据,30%,2000年,暂无数据,通州区住房和城乡建设委员会,北京长江永顺建筑有限公司,116.3624234543559,39.98836351974585
五道口嘉园,92980,海淀 五道口,展春园西路3号,高层,2.00元/平米/月,商品房住宅,0.00,暂无数据,41%,2005年,暂无数据,暂无数据,北京法政置地物业管理有限公司,116.34613582800174,39.9959026690237
珠江绿洲家园,49663,朝阳 定福庄,建国路18号,小高层|高层|超高层,2.48元/平米/月,商品房住宅,3.80,2300户,60%,2003年,地表车位150元/月 地下车位420元/月，2300个停车位,上海国家863软件专业孵化器基地物业管理有限公司,北京珠江世纪物业管理有限公司,116.56775076172148,39.913965431139495
月坛南街乙31号院,117323,西城 月坛,月坛南街31号,多层,0.80元/平米/月,商品房住宅,0.00,暂无数据,暂无数据,暂无数据,暂无数据,暂无数据,暂无数据,116.35406292497454,39.91988396216324
康营家园(6期),43611,朝阳 孙河,兰花苑南路,多层,1.20元/平米/月,商品房住宅,0.00,暂无数据,30%,2010年,暂无数据,"上海芝阁信息科技服务有限公司,上海窗钩厂",房修一公司,116.54992631430083,40.04442019677318
广华新城,0,朝阳 大望路,广渠路,高层,0.00元/平米/月,商品房住宅,0.00,暂无数据,暂无数据,暂无数据,暂无数据,暂无数据,暂无数据,116.50330596511347,39.894013085282666
北坞嘉园,82001,海淀 西山,北坞嘉园北小街,多层,0.80元/平米/月,商品房住宅,1.20,1668户,20%,2010年,1:1,上海总泉物业管理有限公司,上海总泉物业管理有限公司,116.5042052587595,39.99329357665045
北洼东里,85277,海淀 紫竹桥,北洼路,多层|高层,1.60元/平米/月,商品房住宅,1.50,2000户,40%,2000年,地上车位150元/月,暂无数据,业主自管,116.31236457133743,39.944849491785604
翠竹新村,26000,顺义 天竺,花园西街,多层|小高层|高层,1.50元/平米/月,商品房住宅,3.10,暂无数据,40%,2000年,暂无数据,天竺房地产,天竺翠竹新村物业,116.57027697647665,40.06115309552208
世茂奥临花园,81311,朝阳 北苑,清林路一号,小高层|高层|超高层,4.48元/平米/月,商品房住宅,2.28,1190户,55%,2000年,1300个，总数：258个，比例：0:258，地下车位：258个，2240个车位，租金600-650元/月，售价25-30万/个,世茂投资发展有限公司,长城物业集团股份有限公司,116.4096347987383,40.04052724236545
蓝龙小区,32000,门头沟 大峪,滨河路,多层,0.00元/平米/月,小产权房,0.00,暂无数据,30%,暂无数据,暂无数据,暂无数据,暂无数据,116.10743206924347,39.96010468500789
B悦国际,25000,大兴 生物医药基地,天华大街,高层,2.98元/平米/月,办公,2.50,3061户,35%,2014年,共2062个，其中地下1919个停车位，地上143个停车位。车位配比为1：0.67,北京锦荣物业管理有限公司,北京晟邦物业服务公司,116.31989973761623,39.69223606083886
长安6号小区,54508,朝阳 建外大街,建华南路,高层,2.00元/平米/月,商品房住宅,5.32,250户,17%,2010年,100,北京成远房地产开发有限公司,北京市三和物业管理有限公司,116.45006258906211,39.90992294969792
顶秀金瑞家园,41612,丰台 宋家庄,南顶路,多层,2.30元/平米/月,商品房住宅,0.00,暂无数据,暂无数据,2013年,暂无数据,锦能物业管理有限公司,北京鸿路泽物业管理有限公司,116.43847732256101,39.84597918243023
百万庄中里小区,116839,西城 展览路,展览路,多层,0.58元/平米/月,商品房住宅,1.20,5000户,40%,1988年,没有停车费,缔意广告,北京同心物业管理有限公司,116.34321974865526,39.95221233843086
金隅国际,68147,朝阳 花家地,望京西路48号,高层,3.12元/平米/月,商品房住宅,3.00,952户,30%,2004年,200个地上车位，700个地下车位,"上海塘头建材有限公司,中企物业管理有限公司",北京南湖物业管理中心,116.46511405720399,39.99160518932189
阳光南里,66887,海淀 清河,清河二街72号,多层,0.80元/平米/月,商品房住宅,1.35,1027户,35%,1995年,150元/车位/月,阿耐思特岩田产业机械(上海)有限公司,康苑物业管理有限公司,116.34530157167463,40.039059679464366
圣馨家园,80382,朝阳 太阳宫,太阳宫南街,多层|高层,2.00元/平米/月,商品房住宅,2.00,1800户,20%,2010年,500,冠城开发,冠城物业管理公司,116.44717992668059,39.979887306390296
人民日报社家属区,87954,朝阳 红庙,金台北街,多层|高层,0.80元/平米/月,商品房住宅,1.25,3471户,30%,1975年,500个,上海天行物业管理有限公司,金台物业管理有限公司,116.47755567834774,39.92661680561007
天通苑西二区,40781,昌平 天通苑,立汤路,多层,1.25元/平米/月,经济适用房,1.10,5760户,30%,2015年,地上停车位150元/月 地下停车180元/月,北京顺天通房地产开发有限公司,北京顺天通物业管理公司,116.41350901074175,40.10863904478827
云趣园(二区),41541,昌平 回龙观,龙禧二街,多层,0.63元/平米/月,经济适用房,1.50,1645户,35%,2000年,地表车位150元/月,上海家能实业有限公司,长城物业集团股份有限公司,116.33767612569207,40.089579880534956
永旺家园(五区),39677,海淀 西北旺,永丰路,多层,0.80元/平米/月,商品房住宅,0.00,暂无数据,30%,2014年,暂无数据,暂无数据,千秋物业管理公司,116.25780383025568,40.06988472050758
三环新城7号院,56408,丰台 玉泉营,丰桥路7号,小高层|高层,1.20元/平米/月,商品房住宅,2.40,9000户,40%,2004年,停车位2：1，地面车位150元/车位/月，地下车位300/车位/月,上海鸿鼎物业管理有限公司,北京新城康景物业管理有限责任公司,116.31663080386541,39.85754405068532
建设部大院,116202,海淀 增光路,三里河路9号,多层|高层,1.50元/平米/月,商品房住宅,3.10,2546户,35%,1996年,150元/车位/月,建设部,北京万科物业服务有限公司,116.33421962575078,39.93770907220121
龙城花园综合楼,65000,昌平 回龙观,京藏高速,多层,0.00元/平米/月,办公,0.00,暂无数据,暂无数据,暂无数据,暂无数据,暂无数据,暂无数据,116.30520696286446,40.09130280618721
高楼金第,26112,通州 梨园,群芳南街,高层,1.80元/平米/月,商品房住宅,2.50,800户,31%,2010年,车位充足1180个,暂无数据,高楼金第小区物业管理办公室,116.6939778672365,39.87015712436405
通州温馨家园(西区),23157,通州 马驹桥,t马路,多层,1.26元/平米/月,商品房住宅,1.25,暂无数据,30%,1999年,暂无数据,北京盛宏房地产开发有限公司,北京金桥绿园物业管理有限公司,116.55569999330513,39.745610094859295
鸿博家园(二期F区),43774,朝阳 小红门,红坊路,高层,0.00元/平米/月,商品房住宅,0.00,暂无数据,暂无数据,暂无数据,暂无数据,暂无数据,暂无数据,116.47049230212279,39.83158552709728
铭悦雅园,37303,通州 土桥,九棵树东路,高层,2.80元/平米/月,商品房住宅,0.00,暂无数据,暂无数据,2015年,暂无数据,北京新通致远房地产开发有限公司,北京市圣瑞物业服务有限公司,116.68917139018158,39.8788936122587
上东新居,9333,昌平 沙河,汤尚路,多层|小高层,0.55元/平米/月,小产权房,1.20,300户,20%,2012年,暂无数据,北京龙聚天成房地产开发有限责任公司,北京龙聚天成物业管理有限公司,116.32384752084091,40.15546888760425
北花园小区(3号院),34883,朝阳 高碑店,北花园中路,高层,0.00元/平米/月,动迁配套房,0.00,暂无数据,暂无数据,暂无数据,暂无数据,暂无数据,居民自理,116.55419973327291,39.910139348053896
大西洋新城(A区),86595,朝阳 望京,广顺北大街33号,高层,2.80元/平米/月,商品房住宅,0.00,暂无数据,30%,2001年,暂无数据,欧西玛物业管理有限公司,北京盛世物业管理有限公司,116.4727899879562,39.995598034807195
六合园,51046,石景山 鲁谷,鲁谷南路,多层,0.60元/平米/月,商品房住宅,2.00,860户,30%,1994年,车位500个,保利(北京)房地产开发有限公司,北京芳星园物业管理中心,116.22495719945279,39.90362744835935
荣丰2008,141218,西城 广安门外,广安门外大街305号,小高层|高层|超高层,3.30元/平米/月,商品房住宅,3.20,9157户,36%,2003年,地下450-600元/车位/月，地上150元/车位/月,北京荣丰房地产开发有限公司,北京非常空间物业管理有限公司,116.3427521806373,39.9005649295787
西沙老年公寓,30000,昌平 北七家,定泗路,多层,0.00元/平米/月,小产权房,0.00,暂无数据,暂无数据,2011年,暂无数据,暂无数据,暂无数据,116.40947597832414,40.12255808414903
新龙城,56494,昌平 回龙观,昌平路380号,小高层|高层,2.00元/平米/月,商品房住宅,2.45,6000户,40%,2000年,1：1.7，3500个，地上车位3500个地上：150元/车位/月年付1500,"凯兴实业有限公司,庆恒科技有限公司",新龙天宇物业管理有限公司,116.38753802648172,39.98243728295519
周庄子家园,53846,丰台 七里庄,泥洼路,多层,1.86元/平米/月,商品房住宅,0.00,暂无数据,暂无数据,2000年,暂无数据,北京市丰台城建物业管理公司,北京市丰台城建物业管理公司,116.30853805935656,39.86817278803754
中门寺南坡小区,23696,门头沟 大峪,大峪南路,多层,1.82元/平米/月,商品房住宅动迁配套房,0.00,暂无数据,暂无数据,2015年,暂无数据,暂无数据,北京城建福安楼寓物业管理有限公司,116.09676388283754,39.93649867862423
高楼金第,26112,通州 梨园,群芳南街,高层,1.80元/平米/月,商品房住宅,2.50,800户,31%,2010年,车位充足1180个,暂无数据,高楼金第小区物业管理办公室,116.6939778672365,39.87015712436405
昌运宫小区,82409,海淀 紫竹桥,紫竹院路,高层,1.20元/平米/月,商品房住宅,3.60,1084户,15%,1998年,地上500个车位，价格150元/月,中城建房地产开发有限公司,业主自管,116.31566404747558,39.94682785692618
朱辛庄北区,25892,昌平 沙河,朱辛庄东路,多层,0.50元/平米/月,小产权房,0.00,暂无数据,暂无数据,暂无数据,暂无数据,暂无数据,北京亿鑫物业管理公司,116.31708031594259,40.106392999598164
拾景名苑,37313,石景山 古城,体育场西街20号,高层,0.00元/平米/月,商品房住宅,0.00,暂无数据,暂无数据,暂无数据,暂无数据,暂无数据,暂无数据,116.20754821833052,39.907710776594165
保利百合花园,95309,丰台 六里桥,西局西路58号,小高层|高层,2.80元/平米/月,商品房住宅,2.00,1345户,33%,2007年,1到4号楼产权车位25到30万一个，5到9号楼租的车位，小区车位比1比2比较紧张，地下500元一月,保利(北京)房地产开发有限公司,保利物业管理(北京)有限公司,116.31140832512206,39.88276585369942
振兴北社区(南菜园北二区),23001,延庆 延庆城区,菜园中街,高层,0.54元/平米/月,商品房住宅,2.50,暂无数据,30%,2008年,暂无数据,万群物业（上海）管理有限公司,业主自管,115.98010418015653,40.45358602450219
香江别墅,34490,昌平 小汤山北,镇百葛路366号,低层,4.20元/平米/月,商品房住宅,1.00,800户,40%,2005年,充足,香江国际中国地产有限公司,北京达文物业管理,116.14140760058076,40.177645096861696
北辰福第(中区),54139,朝阳 常营,常营北小街2号,多层,1.80元/平米/月,商品房住宅,0.00,暂无数据,30%,2008年,住宅部分机动车总停车位共1103个，其中地上703个,"上海古沙贸易有限公司,展途化工有限公司",北辰物业管理有限公司,116.60805180113782,39.93582220976192
晟世嘉园,24375,通州 果园,通朝大街,多层,0.60元/平米/月,小产权房,0.00,暂无数据,42%,暂无数据,暂无数据,暂无数据,暂无数据,116.64798864953431,39.8985613423776
长安驿,70126,朝阳 建外大街,建华南路6号,多层,7.50元/平米/月,商品房住宅,0.00,968户,30%,2005年,721个，每个售价35万/个；地下850元/月。车位配比1:0.7,北京丹阳房产开发有限公司,第一太平戴维斯物业顾问(北京)有限公司,116.45110435396202,39.91204235097951
照澜院,69322,海淀 北京大学,清华西路,多层,0.00元/平米/月,商品房住宅,0.00,暂无数据,30%,暂无数据,暂无数据,暂无数据,暂无数据,116.33132375827827,40.00615344397943
电子城小区,56369,朝阳 酒仙桥,驼房营南路,高层,2.00元/平米/月,商品房住宅,2.90,2000户,37%,2001年,1500个停车位，出租地下车库280元/月，地上免费。,"阿克苏若贝尔,古驰贸易有限公司",北京弘通物业管理有限责任公司,116.50942504258633,39.97124407926839
沙河一通小区,43648,昌平 沙河,沙阳路,多层|高层,0.60元/平米/月,商品房住宅,1.50,374户,30%,2001年,暂无数据,北京顺天通房地产开发有限公司,北京百姓人家物业管理中心,116.2626210833835,40.12815209307252
清华大学家属院,95687,海淀 清华大学,荷清路,多层,1.90元/平米/月,商品房住宅,1.00,2660户,30%,2003年,6000,华润置地（北京）股份有限公司,华润物业,116.33127021926987,40.004733425746075
和平街西苑,80508,朝阳 安贞,和平里西街,高层,0.80元/平米/月,商品房住宅,3.50,1497户,20%,1998年,150元/车位/月,旭和物业招商部,北京乐都物业管理有限公司,116.42389701565912,39.97256430282229
上上城理想新城（商住楼）,12010,北京周边 燕郊,神威北路,高层,0.00元/平米/月,办公,0.00,暂无数据,暂无数据,暂无数据,暂无数据,暂无数据,暂无数据,116.75607736781907,39.9378971677632
华腾园,70361,朝阳 劲松,东三环南路54号,高层,2.12元/平米/月,商品房住宅,2.10,4236户,40%,1999年,地上车位租价300元/月、地下450元/月,"上海佳绿科技有限公司,高华纺织品有限公司",北京华腾世纪物业管理公司,116.47187470447209,39.893108738921065
高丽园,38888,通州 土桥,颐瑞一街,高层,1.80元/平米/月,商品房住宅,2.30,暂无数据,20%,1995年,暂无数据,庆扬贸易有限公司,高丽园物业管理有限公司,116.69382874852184,39.87343780468764
金福家园,46838,朝阳 定福庄,定福庄北街,高层,1.30元/平米/月,商品房住宅,2.50,717户,37%,2003年,150个停车位,北京金星房地产开发有限公司,北京铭维成物业管理有限公司,116.55939643064814,39.926517554949285
燕京航城,26086,北京周边 燕郊,创意谷街778号,高层|超高层,1.40元/平米/月,商品房住宅,2.99,10446户,44%,2010年,车位配比 1:0.5 ，车位月租：150元/位・月,三河上京房地产开发有限公司,安家物业管理有限公司,116.4133836971231,39.910924547299565
京旺家园七区,28273,朝阳 朝阳周边,金港南路,多层,1.20元/平米/月,动迁配套房,0.00,暂无数据,30%,2000年,暂无数据,"上海竞翔汽车零件有限公司,上海佳化有限公司",北京华特物业管理有限公司,116.57926813878365,40.01856829158413
北新桥三条1号院,112866,东城 北新桥,北新桥三条1号,多层,2.00元/平米/月,单位集体自建房,1.30,暂无数据,20%,1980年,充足,"上海北宙企业管理有限公司,科特环保设备有限公司",北京希尔物业管理有限公司,116.44608650921384,39.97416289940782
天通苑西二区,40781,昌平 天通苑,立汤路,多层,1.25元/平米/月,经济适用房,1.10,5760户,30%,2015年,地上停车位150元/月 地下停车180元/月,北京顺天通房地产开发有限公司,北京顺天通物业管理公司,116.41350901074175,40.10863904478827
中关园,27757,海淀 北京大学,成府路,多层,2.90元/平米/月,商品房住宅,1.20,500户,20%,1983年,停车位380个，出租300-600元/月,"贝古设计事务所,中国建筑与室内设计师网",-,116.32499600443543,39.99786952701159
国锐金,62055,大兴 亦庄,荣华南路1号,小高层|超高层,4.20元/平米/月,商品房住宅,4.83,1650户,30%,2014年,停车位配比1：1.6,北京国锐房地产开发有限公司,北京澳西物业管理有限公司,116.51449022803489,39.796677571072685
金帅府,65300,通州 通州北苑,中山大街56号,多层,3.65元/平米/月,商品房住宅,1.30,1160户,40%,1998年,车位充足,北京通州房地产开发有限责任公司,北京通州兴华物业管理公司,116.65381687364916,39.91120182077753
柳岸方园,63474,通州 梨园,玉桥西里中街52号,小高层,0.80元/平米/月,商品房住宅,2.34,890户,35%,1999年,150元/位/月,北京贵源房地产开发有限公司,北京通纳物业管理有限公司,116.68499310535626,39.89437540171435
大柳树路13号院,89321,海淀 皂君庙,大柳树路13号,多层,0.50元/平米/月,商品房住宅单位集体自建房,2.00,300户,30%,1983年,1:1,"快板电子科技有限公司,上海久誉软件系统有限公司",业主自管,116.34173745473323,39.961077821868436
富力湾,30047,顺义 顺义周边,通顺路,小高层|高层,5.00元/平米/月,商品房住宅,0.50,329户,35%,2010年,独立车库,北京富力城房地产开发有限公司,北京恒富物业服务有限公司,116.88441549128254,40.35684228411617
温泉人家,56818,海淀 温泉,温泉路,多层,0.50元/平米/月,商品房住宅,0.80,552户,30%,2006年,150/月,暂无数据,北京宏圈物业管理有限公司,116.19792494089378,40.04948356075392
南湖东园(一区),64608,朝阳 望京,南湖北路,多层,1.68元/平米/月,商品房住宅,1.90,5740户,40%,2000年,地上车位300个、每个130 立体车库100个、每个300元,"阿克苏若贝尔,古驰贸易有限公司",北京久筑物业管理有限责任公司,116.47186419429761,40.00870878004896
角门西里晨光小区,64918,丰台 马家堡,角门北路,多层,0.80元/平米/月,商品房住宅,1.00,暂无数据,30%,2015年,150元/车位/月,隆江物业管理有限公司,久筑物业,116.38158493969759,39.8550442945013
石景山路23号院,55199,石景山 八角,石景山路23号,多层|高层,0.60元/平米/月,商品房住宅动迁配套房,3.20,607户,30%,2000年,总数0个 地上车位0个,暂无数据,北京电子城物业管理有限公司,116.30399182679773,39.805235879816884
南太平庄北巷小区,53944,朝阳 高碑店,朝阳路,多层,0.50元/平米/月,商品房住宅,2.00,486户,35%,1980年,300,上海机场城市航站楼管理有限责任公司,业主自管,116.54235925817645,39.92545781167433
观音惠园,49686,朝阳 四惠,高碑店路,多层,0.60元/平米/月,商品房住宅经济适用房,1.46,1090户,35%,2006年,150元/车位/月,"北京京海集团上海有限公司,上海智达科技有限公司",北京康居安物业管理有限公司,116.52762399357408,39.89635613684839
榆景苑,47776,通州 物资学院路,朝阳北路,多层,1.20元/平米/月,商品房住宅,0.00,暂无数据,30%,2000年,车位充足,北京市房屋权属登记事务中心,北京榆景苑物业管理有限公司,116.64589902922312,39.94170709714985
前进花园石门苑,40288,顺义 石门,石门街,多层|高层,1.60元/平米/月,商品房住宅,1.35,3200户,30%,2004年,停车位现在不收费,建升房地产开发有限公司,建升物业,116.63802062040895,40.13771582312687
都市心海岸雅园,60186,朝阳 花家地,阜通西大街18号,高层,2.59元/平米/月,商品房住宅,3.25,533户,37%,2002年,300多个,上海河岸商业开发有限公司,中时杰肯道夫物业管理公司,116.47441798703194,39.99478880249338
莲竹馨晴,29740,顺义 后沙峪,天柱西路,小高层,1.50元/平米/月,商品房住宅,1.60,80户,30%,2001年,62个停车位,北京空港天恒房地产开发有限公司,空港物业管理公司,116.56451138222195,40.07623028828347
张营小区,30476,昌平 昌平县城,内环东路,多层,0.88元/平米/月,商品房住宅,0.00,暂无数据,45%,暂无数据,暂无数据,无,居委会自管,116.29588084489043,40.217941038832144
宝产胡同15号院,200000,西城 新街口,宝产胡同15号,低层,0.00元/平米/月,商品房住宅,0.00,暂无数据,暂无数据,1999年,暂无数据,暂无数据,暂无数据,116.37742075467554,39.94134821391118
北纬40度(西区),79470,朝阳 来广营,来广营西路7号,低层,2.36元/平米/月,商品房住宅,0.65,暂无数据,30%,2008年,暂无数据,"上海达同科技有限公司,上海驰阳信息科技有限公司",达文（中澳）物业管理有限公司,116.46985405605794,40.027729566468196
北京方糖,37857,顺义 后沙峪,火沙路,多层|小高层|高层,4.83元/平米/月,办公,2.77,1298户,30%,2013年,580,竺坊建筑设计,北京商宝通商业管理有限公司,116.56362259875038,40.10870829913207
双桥六号井小区,46019,朝阳 双桥,温泉东里中街,多层|小高层|高层,0.50元/平米/月,商品房住宅,2.37,1200户,33%,1998年,150元/车位/月,中兴智慧园物业管理处,北京世纪颐和物业管理有限责任公司,116.61146203834537,39.89498606245396
宝星华庭,72863,朝阳 望京,阜通西大街,小高层|高层,3.50元/平米/月,商品房住宅,2.28,353户,45%,2008年,1:1.33、共484个(地下)、出租地下一层800一个母子车位1500 地下600一个,"上海芝阁信息科技服务有限公司,上海窗钩厂",北京市均豪物业管理股份有限公司,116.4873961660568,40.005141299756914
财富东方,43353,通州 北关,新华北路,高层,1.60元/平米/月,商品房住宅,3.80,868户,35%,2007年,停车位比例2：1，150元以内元/位・月,北京顺开房地产开发有限公司,瑞豪（天津）物业服务有限公司北京分公司,116.6582496520187,39.92371136405222
惠新北里1号院,78478,朝阳 芍药居,安苑路,多层,1.00元/平米/月,商品房住宅,0.00,暂无数据,暂无数据,1989年,暂无数据,上海豪景物业管理有限公司,惠新里嘉德物业,116.42844881950873,39.989947094672424
西营前街小区,43091,通州 中仓,西营前街,多层,0.60元/平米/月,商品房住宅,1.10,4000户,25%,2015年,充足,通州区住房和城乡建设委员会,北京通州兴华物业管理公司,116.67223510101189,39.90538700408474
恒大城7号院,32857,昌平 沙河,高教园北四街,高层,6.00元/平米/月,小产权房,0.00,暂无数据,暂无数据,暂无数据,暂无数据,恒大地产集团北京有限公司,金碧物业有限公司,116.50104753523082,39.991320090588054
华龙苑北里,50751,昌平 霍营,霍营西路,多层,1.80元/平米/月,商品房住宅,1.71,828户,40%,2005年,150元/车位/月,北京三江鸿泰房地产开发有限公司,北京华龙苑物业管理有限公司,116.37738302584413,40.08645406338553
万杰医院家属楼,43774,朝阳 朝青板块,青年路北小区10号,多层,0.00元/平米/月,商品房住宅,0.00,暂无数据,暂无数据,暂无数据,暂无数据,暂无数据,暂无数据,116.52398037659506,39.94323084308083
奥竺苑,28386,顺义 天竺,小天竺路36号,小高层,1.96元/平米/月,商品房住宅,1.80,132户,35%,2001年,1：1 、地上出租价格150元/月.位,上海亨涛实业有限公司,北京奥竺物业管理有限公司,116.59661655165692,40.05198016820522
聚福苑,45454,朝阳 定福庄,朝阳路,小高层,0.00元/平米/月,动迁配套房,2.00,暂无数据,40%,暂无数据,暂无数据,北京东旭发房地产开发有限公司,均豪物业有限公司,116.56218243535679,39.92269093369397
双桥六号井小区,46019,朝阳 双桥,温泉东里中街,多层|小高层|高层,0.50元/平米/月,商品房住宅,2.37,1200户,33%,1998年,150元/车位/月,中兴智慧园物业管理处,北京世纪颐和物业管理有限责任公司,116.61146203834537,39.89498606245396
太平家园,42751,昌平 天通苑,太平庄中街,多层,0.55元/平米/月,动迁配套房,1.20,1600户,30%,1995年,充足，150元/月,北京安地房地产开发有限责任公司,北京嘉仁物业管理有限责任公司,116.41507987758703,40.07582794956865
小街之春嘉园,40162,通州 土桥,砖厂北街9号,多层,1.50元/平米/月,商品房住宅,1.50,637户,40%,2006年,总数0个 地上车位0个,通州区住房和城乡建设委员会,北京澳通物业管理中心,116.69581211725733,39.88255677356782
南太平庄北巷小区,53944,朝阳 高碑店,朝阳路,多层,0.50元/平米/月,商品房住宅,2.00,486户,35%,1980年,300,上海机场城市航站楼管理有限责任公司,业主自管,116.54235925817645,39.92545781167433
欣桥家园,25000,通州 土桥,张采路,多层|小高层,2.00元/平米/月,小产权房,1.35,暂无数据,25%,2006年,暂无数据,上海爱邦城房地产开发有限公司,和信天源物业管理公司,116.70505487248005,39.87240942066068
城南嘉园益嘉园,51262,丰台 马家堡,马家堡西路,多层,1.30元/平米/月,单位集体自建房,1.87,1267户,34%,2002年,地上车位150/元、地下车位350/元,上海寰舟水产有限公司,北京京丰物业管理有限责任公司,116.37904695714026,39.838821516855816
城南嘉园益嘉园,51262,丰台 马家堡,马家堡西路,多层,1.30元/平米/月,单位集体自建房,1.87,1267户,34%,2002年,地上车位150/元、地下车位350/元,上海寰舟水产有限公司,北京京丰物业管理有限责任公司,116.37904695714026,39.838821516855816
城南嘉园益嘉园,51262,丰台 马家堡,马家堡西路,多层,1.30元/平米/月,单位集体自建房,1.87,1267户,34%,2002年,地上车位150/元、地下车位350/元,上海寰舟水产有限公司,北京京丰物业管理有限责任公司,116.37904695714026,39.838821516855816
龙门新区B9小区,23380,门头沟 龙泉,和平街,多层|小高层,1.70元/平米/月,商品房住宅,0.00,暂无数据,35%,2013年,暂无数据,上海蒂沙物业管理有限公司,北京奥和物业管理有限公司,116.0892253029978,39.95108579286173
首城国际,93740,朝阳 双井,广渠路36号,高层,2.83元/平米/月,商品房住宅,3.20,3820户,30%,2010年,A、B、D区车位和住宅比例0.8:1；C区车位和住宅比例2:1,上海维风企业管理有限公司,北京市嘉宝物业管理有限公司,116.47585868940884,39.89867212255458
天恒花园,40715,顺义 天竺,天柱路,多层,1.80元/平米/月,商品房住宅,1.19,249户,40%,2006年,地上150元/月,北京空港天恒房地产开发有限公司,北京天竺空港物业管理有限公司,116.56679541381162,40.07484355534475
后南仓小区,50204,通州 通州北苑,新城南街,多层,0.60元/平米/月,商品房住宅,1.17,1674户,30%,1990年,250,通州区住房和城乡建设委员会,北京通运达物业管理有限公司,116.65802067394421,39.90801829621002
中关村港沟16号院,108000,海淀 苏州桥,港沟路16号,多层,0.50元/平米/月,商品房住宅,0.00,暂无数据,暂无数据,1978年,暂无数据,无,北京亿方物业管理有限责任公司,116.30964243615054,39.98662567003797
山语间(保利西山林语),58911,海淀 马连洼,黑龙潭路,多层,0.40元/平米/月,商品房住宅,0.00,3315户,30%,0000-00-00年,地下停车场,暂无数据,暂无数据,116.2217337199608,40.044811468348676
天通苑西三区,36955,昌平 天通苑,立汤路,多层|高层,1.25元/平米/月,经济适用房,3.50,2600户,30%,2015年,地上150/月，地下车库180元,北京顺天通房地产开发有限公司,北京顺天通物业管理公司,116.41350901074175,40.10863904478827
世茂维拉,38889,房山 长阳,东环路,多层|高层,2.80元/平米/月,商品房住宅,2.30,606户,31%,2015年,共780个停车位,贝思特物业,上海世茂南京物业服务有限公司北京第二分公司,116.18407298009937,39.75002597358078
天裕昕园(西区),22000,顺义 中央别墅区,天北路,高层,1.89元/平米/月,商品房住宅,0.00,暂无数据,暂无数据,暂无数据,暂无数据,北京市天竺房地产开发公司,空港物业集团,116.5298764048098,40.09016311762757
新建村,35135,通州 物资学院路,物资学院路3号,多层,0.00元/平米/月,小产权房,0.00,暂无数据,30%,2000年,暂无数据,通州区住房和城乡建设委员会,北京长江永顺建筑有限公司,116.3624234543559,39.98836351974585
光辉里,76220,朝阳 CBD,大望路,高层,1.80元/平米/月,商品房住宅,0.00,暂无数据,30%,2015年,暂无数据,北京房地产开发有限公司,北京红星酒厂股份有限公司,116.48420403742708,39.91492207389635
金驹家园(F区),31590,朝阳 东坝,东坝中街,多层,1.20元/平米/月,动迁配套房,0.00,暂无数据,暂无数据,2012年,暂无数据,北京市朝阳城市建设综合开发公司,朝青物业管理公司,116.57530353478828,39.964454277997646
世纪茶贸中心,70000,西城 马连道,茶马北街1号,高层,0.00元/平米/月,办公,0.00,暂无数据,暂无数据,暂无数据,暂无数据,暂无数据,暂无数据,116.33226401465556,39.88519067949976
鼓楼西大街小区,130691,西城 什刹海,鼓楼西大街,多层,1.00元/平米/月,商品房住宅,1.80,暂无数据,10%,2003年,暂无数据,北京市密云县房地产开发总公司,北京恒基物业管理有限公司,116.39452934243528,39.95025459572191
盛今大厦,60776,丰台 六里桥,莲宝路1号,高层,2.00元/平米/月,商品房住宅,1.33,暂无数据,35%,2001年,暂无数据,上海锦森物业管理有限公司,北京中视盛元物业有限公司,116.30713409767503,39.89523918231763
朗庭大厦,30000,朝阳 管庄,朝阳路8号,高层,3.20元/平米/月,办公,2.50,暂无数据,35%,2013年,暂无数据,暂无数据,北京铭致置地物业管理有限公司,116.60475897246046,39.91709105529181
首座御园(二期2号院),34103,大兴 枣园,清泰路2号,高层,0.00元/平米/月,商品房住宅,0.00,暂无数据,暂无数据,暂无数据,暂无数据,暂无数据,暂无数据,116.37290452372412,39.75531946493103
重聚园,51003,石景山 鲁谷,鲁谷大街41-1号,多层|小高层|高层,1.50元/平米/月,商品房住宅,2.80,1000户,30%,2004年,小区停车位目前充足，地上地下都有。,博信体育、上海对外建设,北京芳星园物业管理中心,116.23352927978176,39.90020084716254
TBD云集中心,47593,昌平 北七家,七北路42号,高层,3.62元/平米/月,商品房住宅,2.50,暂无数据,30%,2015年,暂无数据,北京宁科置业有限责任公司,国贸物业酒店管理有限公司,116.37377821566312,40.104673632224376
碧波园,27750,房山 长阳,房山区长阳路,多层,0.50元/平米/月,商品房住宅,0.99,1200户,33%,2002年,800地上车位，280地下车位，免费停车,上海怡丰物业管理有限公司,北京鑫海莱物业管理有限公司,116.18605455222384,39.75592707381004
牡丹园东里,102689,海淀 牡丹园,北土城路,多层|高层,0.68元/平米/月,商品房住宅,1.33,1772户,30%,2015年,停车位是120元/月,上海显贵物业管理有限公司,北京海淀区志新物业管理公司,116.40450520478468,39.984943888839986
新纪家园,81812,朝阳 太阳宫,太阳宫中路,多层|高层|超高层,1.01元/平米/月,商品房住宅,2.80,2000户,35%,2002年,地下350元/月、地上180元/月,上海锦都置业有限公司,北京新纪家园物业管理有限公司,116.4566752854127,39.97912716238799
东方银座,78281,东城 东直门外,东直门外大街48号,超高层,8.00元/平米/月,商品房住宅,0.00,暂无数据,暂无数据,2003年,暂无数据,北京东黎广场有限公司,北京鼎铭物业管理有限公司,116.4419681377728,39.94612846594149
左家庄南里,75108,朝阳 国展,左家庄西街,高层,0.58元/平米/月,商品房住宅,3.30,3000户,25%,1990年,地上300,北京友谊辉志房地产开发公司,铭月豪物业公司,116.44906654791264,39.96025559575882
恒大御景湾(东区),33481,朝阳 豆各庄,黄厂路,高层,3.00元/平米/月,经济适用房,0.00,暂无数据,暂无数据,暂无数据,暂无数据,恒大地产集团北京有限公司,金碧物业有限公司,116.56126822983929,39.8612342168
新纪家园,81812,朝阳 太阳宫,太阳宫中路,多层|高层|超高层,1.01元/平米/月,商品房住宅,2.80,2000户,35%,2002年,地下350元/月、地上180元/月,上海锦都置业有限公司,北京新纪家园物业管理有限公司,116.4566752854127,39.97912716238799
尚峰尚水,61476,海淀 温泉,温北路8号,多层,3.00元/平米/月,商品房住宅,1.50,2822户,30%,2012年,3000,北京世纪正源房地产开发有限公司,北京正源和美物业服务有限公司,116.14099590716553,40.10187605719139
望京金茂府,118486,朝阳 来广营,来广营西路4号,小高层,0.70元/平米/月,商品房住宅,2.30,暂无数据,30%,2014年,暂无数据,上海南塘物业有限公司,中化金茂物业管理（北京）有限公司,116.46773046183235,40.025077499268086
安定门内大街,137254,东城 交道口,安定门内大街,低层,0.00元/平米/月,商品房住宅,0.00,暂无数据,暂无数据,暂无数据,暂无数据,暂无数据,暂无数据,116.41465881484535,39.95248178836508
潘家园东里,64348,朝阳 潘家园,劲松南路,多层|高层,1.25元/平米/月,商品房住宅,2.00,7000户,30%,1994年,免费停车，部分要钱,上海友喜建设集团有限公司,北京开兴和物业管理有限公司,116.46145400123415,39.8844760510656
南厂住宅(东区),29178,昌平 南口,西民路,多层,1.00元/平米/月,商品房住宅,0.00,2106户,30%,2015年,暂无数据,上海巨宏物业服务有限公司,上海巨宏物业服务有限公司,116.13410078356262,40.251646306655864
远大园六区,94150,海淀 世纪城,板井路,高层,1.25元/平米/月,商品房住宅,3.10,暂无数据,35%,2000年,暂无数据,北京金源鸿大房地产开发有限公司,北京世纪颐和物业管理有限责任公司,116.292871521432,39.957392036389784
石景苑,36761,顺义 顺义城区,西环路,多层|小高层,0.80元/平米/月,商品房住宅,1.20,864户,35%,2000年,地面免费停车，无地下车库,建升房地产,北京前进花园物业管理中心,116.63718196238484,40.13350699195742
华通艺术园区,30000,通州 宋庄,宋庄创意工场街,多层,0.00元/平米/月,办公,0.00,暂无数据,暂无数据,暂无数据,暂无数据,暂无数据,暂无数据,116.72392782209192,39.95195749491198
美丽园,108818,海淀 四季青,美丽园路,多层,1.83元/平米/月,商品房住宅,0.95,1469户,27%,2000年,车位充足，地上停车1300-1600元/年，地下车库480元/月，海博停车场150/月,北京东方鸿铭房地产开发有限公司,北京鸿铭物业管理有限公司,116.28585530624633,39.94262566364006
西海北沿四合院,181161,西城 什刹海,西海北沿,低层,0.00元/平米/月,商品房住宅,0.00,暂无数据,暂无数据,暂无数据,暂无数据,暂无数据,暂无数据,116.37670696111732,39.93393010813022
北花园小区(3号院),34883,朝阳 高碑店,北花园中路,高层,0.00元/平米/月,动迁配套房,0.00,暂无数据,暂无数据,暂无数据,暂无数据,暂无数据,居民自理,116.55419973327291,39.910139348053896
民园小区,37135,昌平 沙河,路小路,多层,0.55元/平米/月,商品房住宅,1.00,1918户,25%,2000年,停车位非常多 能够满足小区内居民的需求 而且 停车位没有任何费用,世邦魏理仕物业顾问(中国）有限公司,北京北盛物业管理有限责任公司,116.38718282031357,39.80614577106088
铁道部第三住宅区,123739,西城 复兴门,月坛北街,多层|高层,1.60元/平米/月,商品房住宅,1.60,899户,30%,1998年,充足,江湾物业管理有限公司,业主自管,116.35569775117216,39.92258095621345
丽园东里,42820,大兴 黄村,丽园路,多层,0.80元/平米/月,商品房住宅,1.00,720户,30%,2015年,车位充足,上海第一太平物业管理有限公司,北京金冠物业管理有限责任公司,116.33623901653722,39.755565892828265
玉海园三里,74630,海淀 永定路,采石路1号,多层,1.20元/平米/月,商品房住宅,0.00,1400户,24%,1998年,每户一位，地上车位150元/月,"上海国际文化有限公司,上海丽秀商贸有限公司",北京海淀区志新物业管理公司,116.23850247874608,39.93282255414721
东方银座,78281,东城 东直门外,东直门外大街48号,超高层,8.00元/平米/月,商品房住宅,0.00,暂无数据,暂无数据,2003年,暂无数据,北京东黎广场有限公司,北京鼎铭物业管理有限公司,116.4419681377728,39.94612846594149
清水园,56355,昌平 立水桥,立军路,小高层,0.65元/平米/月,商品房住宅,2.00,900户,41%,1998年,暂无停车费,北京大通房地产开发有限公司,北京兴中建物业管理有限公司,116.4069607228962,40.05478174313985
北京新天地(西区),56087,朝阳 管庄,朝阳路7号,小高层|高层,1.98元/平米/月,商品房住宅,3.10,暂无数据,30%,2004年,暂无数据,杉岛咖啡、诺诗雅美容,安泰祥物业管理有限公司,116.61147200953651,39.92032409599439
于家园二区(北院),31227,怀柔 怀柔城区,"开放路,近于家园路",多层,0.88元/平米/月,商品房住宅,0.00,暂无数据,暂无数据,暂无数据,暂无数据,北京宏怀房地产开发有限公司,北京新正大物业管理有限公司,116.64814596079522,40.33643594205964
天通苑西三区,36955,昌平 天通苑,立汤路,多层|高层,1.25元/平米/月,经济适用房,3.50,2600户,30%,2015年,地上150/月，地下车库180元,北京顺天通房地产开发有限公司,北京顺天通物业管理公司,116.41350901074175,40.10863904478827
易构空间,66576,朝阳 双井,百子湾路甲16号,多层,2.20元/平米/月,商品房住宅,0.00,暂无数据,50%,2003年,暂无数据,暂无数据,北京太平洋物业管理公司,116.48892463288202,39.90565627463675
通惠家园惠民园,58977,朝阳 四惠,建国路,多层|高层,0.55元/平米/月,商品房住宅,2.11,1016户,31%,2004年,300,"北京京海集团上海有限公司,上海智达科技有限公司",亿方物业管理有限责任公司,116.5183534807111,39.91600501681222
通用时代国际公寓,84297,朝阳 国贸,永安东里甲3号,高层|超高层,6.80元/平米/月,商品房住宅,3.89,370户,30%,2002年,停车位1：1.3、150元/月,北京通润房地产开发有限公司,国贸物业酒店管理有限公司,116.45664384471985,39.91075339539144
莲宝路7号院,84514,海淀 公主坟,莲宝路7号,高层,2.00元/平米/月,商品房住宅,3.00,1500户,20%,2002年,500个,中国海军,业主自管,116.30686846873573,39.89665796467824
南海家园二里,34847,大兴 亦庄,泰河一街,多层,1.50元/平米/月,商品房住宅,2.08,暂无数据,20%,2012年,地上地下均有车位,暂未获知,无,116.49624941601037,39.769157226699726
新龙城,56494,昌平 回龙观,昌平路380号,小高层|高层,2.00元/平米/月,商品房住宅,2.45,6000户,40%,2000年,1：1.7，3500个，地上车位3500个地上：150元/车位/月年付1500,"凯兴实业有限公司,庆恒科技有限公司",新龙天宇物业管理有限公司,116.38753802648172,39.98243728295519
海棠公社(2号院),50880,朝阳 豆各庄,白鹿司路2号,多层,2.58元/平米/月,商品房住宅,1.39,2343户,35%,2005年,户数比与车位比为1：1，别墅车位比1:2,上海荣正投资有限公司,深圳长城物业集团股份有限公司北京分公司,116.56392389041842,39.87674407480772
王府花园,48237,昌平 北七家,王府街10号,低层|小高层,1.80元/平米/月,商品房住宅,1.60,896户,60%,1995年,免费停车,北京法政实业有限公司,宝地嘉物业,116.37779957010909,40.10671941577081
天通苑西三区,36955,昌平 天通苑,立汤路,多层|高层,1.25元/平米/月,经济适用房,3.50,2600户,30%,2015年,地上150/月，地下车库180元,北京顺天通房地产开发有限公司,北京顺天通物业管理公司,116.41350901074175,40.10863904478827
恒大御景湾(东区),33481,朝阳 豆各庄,黄厂路,高层,3.00元/平米/月,经济适用房,0.00,暂无数据,暂无数据,暂无数据,暂无数据,恒大地产集团北京有限公司,金碧物业有限公司,116.56126822983929,39.8612342168
蜂鸟家园,144650,海淀 万柳,万柳中路,小高层|高层,2.60元/平米/月,商品房住宅,2.80,暂无数据,31%,2004年,地上车位500个，租价300/月，地下500每月，在宏状元楼下,嘉里物业管理（上海）有限公司,北京国世通物业管理有限公司,116.30330102806394,39.97070004375005
展春园小区,89377,海淀 五道口,北四环中路279号,多层,0.00元/平米/月,商品房住宅,2.16,2480户,30%,1986年,450个,中科院，工商银行，三建工程公司,北京安居物业管理有限公司,116.37262622867712,39.99393147001058
望园东里,60578,丰台 七里庄,丰台北路125号,高层,1.20元/平米/月,商品房住宅,2.00,2600户,30%,2000年,150元/月，一期全部为地上车位，二期开通地下车位,丰台区城市建设综合开发公司,丰台城建开发物业管理公司,116.29553400913304,39.87254509044022
远中悦莱,91839,海淀 中关村,海淀中街15号,高层,4.90元/平米/月,商品房住宅,9.03,暂无数据,30%,2004年,暂无数据,北京远中房地产开发有限公司,远悦物业管理公司,116.31658597842046,39.98343607574141
润泽公馆,80592,朝阳 北苑,水岸南街,高层,3.46元/平米/月,商品房住宅,2.89,1994户,32%,2015年,车位配比为1：0.9,北京润泽庄苑房地产开发有限公司,国贸物业酒店管理有限公司,116.44414805575387,40.05917696227042
溪城家园(东区),50606,昌平 立水桥,陈家营西路2号,多层,1.80元/平米/月,经济适用房,0.00,暂无数据,暂无数据,2010年,暂无数据,招商局地产（北京）有限公司,北京首欣物业管理有限责任公司,116.43151419723098,40.06774105451059
国锐金,62055,大兴 亦庄,荣华南路1号,小高层|超高层,4.20元/平米/月,商品房住宅,4.83,1650户,30%,2014年,停车位配比1：1.6,北京国锐房地产开发有限公司,北京澳西物业管理有限公司,116.51449022803489,39.796677571072685
龙腾苑(二区),45595,昌平 回龙观,育知东路,多层,0.64元/平米/月,经济适用房,0.93,1300户,30%,2015年,150元/车位/月,"上海芝阁信息科技服务有限公司,上海窗钩厂",北京天鸿宝地置业有限公司,116.34368138785682,40.08317228959942
空港吉祥花园,49433,顺义 中央别墅区,"安泰大街,近裕华路",小高层,2.20元/平米/月,商品房住宅,0.00,暂无数据,暂无数据,2007年,暂无数据,北京空港天恒房地产开发有限公司,北京天竺空港物业管理有限公司,116.56012073438083,40.09301865044828
亚奥人家,77859,朝阳 健翔桥,安翔里1号,高层,1.60元/平米/月,商品房住宅,0.00,568户,40%,1999年,每户一位，出租150元/月,上海新北方物业管理有限公司,北京金第房地产物业公司,116.39025448617438,39.99734767644923
天通苑西二区,40781,昌平 天通苑,立汤路,多层,1.25元/平米/月,经济适用房,1.10,5760户,30%,2015年,地上停车位150元/月 地下停车180元/月,北京顺天通房地产开发有限公司,北京顺天通物业管理公司,116.41350901074175,40.10863904478827
天时名苑,52207,通州 通州北苑,杨庄路2号,小高层|高层,1.98元/平米/月,商品房住宅,2.90,2020户,35%,2007年,共1846个,北京天时房地产开发有限公司,北京伟联物业管理有限公司,116.64036753338432,39.91101240603404
定慧东里,78025,海淀 定慧寺,西翠路,高层,1.98元/平米/月,商品房住宅,2.60,2550户,35%,1995年,全部地上车位，150元/位・月 地上,"阿克苏若贝尔,古驰贸易有限公司",北京天鸿宝地物业管理经营有限公司,116.29274396204958,39.9286480578313
沙河一通小区,43648,昌平 沙河,沙阳路,多层|高层,0.60元/平米/月,商品房住宅,1.50,374户,30%,2001年,暂无数据,北京顺天通房地产开发有限公司,北京百姓人家物业管理中心,116.2626210833835,40.12815209307252
裕泽园,103366,海淀 定慧寺,彰化南路,小高层,2.20元/平米/月,商品房住宅,0.00,暂无数据,20%,2000年,暂无数据,北京裕泽房地产开发有限责任公司,北京集兴物业管理有限公司,116.29940094486184,39.942352874753674
兴华嘉园西区,0,通州 马驹桥,兴华南街,多层,0.00元/平米/月,小产权房,1.60,暂无数据,36%,2015年,暂无数据,北京海龙家园房地产开发有限公司,北京市均豪物业管理股份有限公司,116.55850944378759,39.75974899906144
晨月园,95944,海淀 世纪城,蓝靛厂西路,多层,1.25元/平米/月,商品房住宅,0.00,暂无数据,暂无数据,2007年,暂无数据,北京金源鸿大房地产开发有限公司,北京海清物业管理有限公司,116.28902569588269,39.96477101087811
红星北里小区,41282,大兴 旧宫,红星街,多层,0.50元/平米/月,商品房住宅,1.05,1500户,35%,2001年,150元/月.位,上海轻工物业管理公司,北京德茂物业管理有限公司,116.43245885530528,39.81442980968723
铁西住宅小区,89252,海淀 军博,北蜂窝西路,多层,0.00元/平米/月,商品房住宅,0.00,300户,18%,1990年,地上150元/车位/月,暂无数据,"上海宣光贸易有限公司,上海天启贸易有限公司",116.33126599723397,39.90431489266447
角门西里晨光小区,64918,丰台 马家堡,角门北路,多层,0.80元/平米/月,商品房住宅,1.00,暂无数据,30%,2015年,150元/车位/月,隆江物业管理有限公司,久筑物业,116.38158493969759,39.8550442945013
新通国际花园(南区),51240,通州 梨园,通州区九棵树东路156号,小高层,2.20元/平米/月,商品房住宅,2.35,暂无数据,35%,2009年,暂无数据,北京华成通房地产有限公司,北京天诚古运物业管理有限公司,116.67985731309462,39.8874103674697
周庄嘉园B区,62365,朝阳 华威桥,弘燕路,多层,0.60元/平米/月,商品房住宅,1.40,3500户,30%,2000年,100元/位・月,震旦大楼管理（上海）有限公司,北京金都宏业物业管理有限公司,116.4804463356483,39.8721175220598
中关园,27757,海淀 北京大学,成府路,多层,2.90元/平米/月,商品房住宅,1.20,500户,20%,1983年,停车位380个，出租300-600元/月,"贝古设计事务所,中国建筑与室内设计师网",-,116.32499600443543,39.99786952701159
枣园小区,41756,大兴 枣园,兴华大街,多层,0.60元/平米/月,商品房住宅,1.60,3600户,30%,2001年,停车位充足，车位免费,上海杰森物业服务发展有限公司,北京大兴城建物业开发总公司,116.3341229680779,39.75740908152351
启迪香山,55577,石景山 八大处,香山南路28号,小高层,0.50元/平米/月,商品房住宅,2.30,暂无数据,20%,2017年,暂无数据,北京启迪和谐投资发展有限公司,暂无数据,116.2146713318719,39.97999808946226
望春园,58079,朝阳 北苑,锦芳北街,高层,2.48元/平米/月,商品房住宅,0.00,3500户,30%,2008年,地下300元/月 地上没有车位!,上海显贵物业管理有限公司,北京城承物业管理有限责任公司,116.42541317569886,40.05288640224027
劲松东社区(劲松三区),64434,朝阳 劲松,劲松路,多层,2.00元/平米/月,商品房住宅,2.08,3000户,30%,1980年,150元/车位/月,"阿克苏若贝尔,古驰贸易有限公司",劲松物业,116.4780842413098,39.887337149510756
欧陆经典万兴苑,80667,朝阳 亚运村小营,北苑路172号,多层,2.49元/平米/月,商品房住宅,2.00,2600户,30%,1999年,500元/月,闸北创意文化传播有限公司,北京新荣盛世物业管理有限公司,116.42644047788008,40.00151946670667
龙翔路小区(东区),78947,海淀 牡丹园,龙翔路,多层|高层,0.50元/平米/月,商品房住宅,0.00,暂无数据,暂无数据,1999年,暂无数据,北京城建集团,单位自管,116.38281193519367,39.98735456483174
拾景名苑,37313,石景山 古城,体育场西街20号,高层,0.00元/平米/月,商品房住宅,0.00,暂无数据,暂无数据,暂无数据,暂无数据,暂无数据,暂无数据,116.20754821833052,39.907710776594165
马池口红冶家属楼,29679,昌平 昌平县城,昌流路,多层,0.56元/平米/月,商品房住宅,1.20,暂无数据,30%,1988年,车位充足,无,业主自管,116.19845512080576,40.197200242050144
奥林匹克花园(三期),62669,朝阳 东坝,东坝中路,小高层,1.50元/平米/月,商品房住宅,0.00,暂无数据,暂无数据,2005年,暂无数据,上海盛顺餐饮有限公司,北京奥园物业管理有限公司,116.55184096266481,39.96575209921597
金科廊桥水岸,60145,昌平 南邵镇,南丰路,多层,3.00元/平米/月,商品房住宅,1.20,998户,60%,2013年,总车位：998。其中地上298；地下：700,上海松天物业管理有限公司,金科物业管理有限公司,116.28210362311445,40.200957556643424
沿河路西区,22018,通州 土桥,盐河路,多层,3.18元/平米/月,商品房住宅,0.00,暂无数据,30%,暂无数据,暂无数据,暂未获知,-,116.76745458676405,39.839977694204364
欣桥家园,25000,通州 土桥,张采路,多层|小高层,2.00元/平米/月,小产权房,1.35,暂无数据,25%,2006年,暂无数据,上海爱邦城房地产开发有限公司,和信天源物业管理公司,116.70505487248005,39.87240942066068
MOMA万万树,50966,顺义 胜利,火寺路,低层,0.00元/平米/月,商品房住宅,0.40,283户,65%,2008年,室内车库双车位,北京东君房地产开发有限公司,北京当代物业管理有限公司,116.54867802896419,40.156362084085146
首开知语城,80839,朝阳 望京,望京西路,小高层|高层,2.68元/平米/月,商品房住宅,2.20,1600户,30%,2007年,"263个,地下500元/月(管理费150元/月) 地上售价：150（元/个） 地下售价：500（元/个） 地下租价：0（元/月）","北京京海集团上海有限公司,上海智达科技有限公司",北京望京实业总公司,116.46671600541994,40.002198044047745
燕丹村,26666,昌平 天通苑,大海路,多层,1.50元/平米/月,小产权房,0.00,暂无数据,30%,暂无数据,暂无数据,北京城建三房地产开发有限公司,北京燕城苑物业管理公司,116.44525324102278,40.10409293488529
东大街6号院,61000,丰台 七里庄,东大街6号,多层,0.58元/平米/月,商品房住宅,1.67,961户,30%,2001年,本小区机动车位1200个；非机动车位4000个,上海双电电气有限公司,北京龙城物业管理公司,116.30564237154515,39.86871321495592
三山新新家园,41542,顺义 后沙峪,火沙路,多层,0.80元/平米/月,商品房住宅,1.99,600户,12%,2004年,230个,上海涂家创业园物业管理有限公司,北京德宏物业管理有限公司,116.54178425281951,40.10284805416535
昆泰国际公寓,66805,朝阳 朝外大街,朝阳门外大街乙12号,超高层,5.50元/平米/月,商品房住宅,4.73,暂无数据,26%,2005年,暂无数据,北京昆泰嘉华房地产开发有限公司,北京盛达连物业,116.44887637663618,39.928717980682904
北纬40度(东区),79636,朝阳 望京,广达路2号,高层,2.36元/平米/月,商品房住宅,2.50,2100户,30%,2008年,地下450元/车位/月、地上：200元/车位/月,"上海达同科技有限公司,上海驰阳信息科技有限公司",达文（中澳）物业管理有限公司,116.47148690598343,40.02949274240213
首开龙湖天璞,101619,朝阳 东坝,驹子房路,小高层,0.00元/平米/月,商品房住宅,2.20,暂无数据,30%,2017年,暂无数据,上海地铁运营有限公司,北京龙湖物业服务有限公司,116.56056764137205,39.97398195418275
将府锦苑,44000,朝阳 将台路,将台村路,高层,0.00元/平米/月,小产权房,0.00,暂无数据,暂无数据,暂无数据,暂无数据,暂无数据,暂无数据,116.53730898459936,39.98404607410841
泰悦豪庭,72397,朝阳 东大桥,南三里屯路16号,高层,3.80元/平米/月,商品房住宅,0.00,暂无数据,30%,2003年,暂无数据,北京银泰置业有限公司,北京中青旅酒店管理有限公司,116.46233604741438,39.93360991173867
甘露园西里,55901,朝阳 甘露园,朝阳路,高层,1.00元/平米/月,商品房住宅,3.60,266户,30%,1975年,总数0个 地上车位0个,上海阿斯牛牛春天实业有限公司,北京国贸酒店物业管理有限公司,116.51645527133796,39.922587043022055
龙祥嘉园,68294,朝阳 奥林匹克公园,清林东路,小高层,1.60元/平米/月,商品房住宅,2.14,922户,36%,2002年,300个本小区停车位474个,世纪龙祥房地产开发有限公司,北京青年物业管理有限公司,116.41083601286626,40.042461940699965
金明园,32007,昌平 昌平县城,昌平区南金路9号,多层,0.60元/平米/月,商品房住宅,0.00,暂无数据,暂无数据,2006年,60个停车位，免费停车,河北盛世浩天房地产开发有限公司,金家坟居委会,116.30973442263475,40.21388694534448
新光大中心,30000,通州 北关,永顺南街,高层,5.20元/平米/月,办公,9.10,暂无数据,3%,暂无数据,暂无数据,北京华恒兴业房地产开发有限公司,第一太平戴维斯物业顾问(北京)有限公司,116.66613398964923,39.921992054901544
悠乐汇,38801,朝阳 望京,阜安东路,高层,3.90元/平米/月,办公,4.93,700户,50%,2004年,地下车位450/月，共有停车位1038个,富士康科技集团,第一太平戴维斯物业顾问(北京)有限公司,116.48381929317715,39.99475591340739
通惠家园惠民园,58977,朝阳 四惠,建国路,多层|高层,0.55元/平米/月,商品房住宅,2.11,1016户,31%,2004年,300,"北京京海集团上海有限公司,上海智达科技有限公司",亿方物业管理有限责任公司,116.5183534807111,39.91600501681222
龙鼎园,41137,通州 九棵树,云景南大街,小高层,2.20元/平米/月,商品房住宅,2.25,1590户,30%,2002年,小区有260个停车位，地上车位配比1：1，大车210每月、小车150每月,北京隆鹤房地产开发有限公司,北京隆鹤物业管理公司,116.65566891011909,39.88437403977029
西西庄园,32226,通州 果园,通朝大街,小高层,0.98元/平米/月,商品房住宅,2.10,暂无数据,31%,2010年,充足,庆扬贸易有限公司,百万庄物业管理有限公司,116.65171717435015,39.898886965307206
清岚花园西区,34905,顺义 后沙峪,俗安路,多层,0.98元/平米/月,商品房住宅,1.17,2096户,30%,2007年,自动停车,上海增沁物业管理有限公司,北京裕鑫龙腾物业管理公司,116.54582348354513,40.12605799729349
裕龙花园一区,44573,顺义 顺义城区,裕龙二街,多层,0.58元/平米/月,商品房住宅,1.88,1104户,30%,1998年,小区内停车位充足,北京航空航天大学校友产业基地,北京大龙绿港物业管理有限公司,116.67298635390989,40.12501820048202
高碑店新村,41304,朝阳 高碑店,高碑店路,多层,4.50元/平米/月,小产权房,0.00,暂无数据,暂无数据,暂无数据,暂无数据,暂无数据,暂无数据,116.53353403535478,39.9123311035648
翡翠公园,71139,昌平 北七家,"七星路,近北清路",高层,4.45元/平米/月,商品房住宅,1.69,暂无数据,30%,暂无数据,暂无数据,北京昌业房地产开发有限公司,万科物业,116.43538589397899,40.11265657591426
西马场北里,56595,丰台 角门,"马家堡路,近角门路",多层,1.20元/平米/月,商品房住宅,1.70,暂无数据,25%,2000年,地上车位300个、150元/月,北京金易房地产开发有限公司,北京西马物业管理有限责任公司,116.3880903783703,39.850168519273964
嘉园二里,60558,丰台 马家堡,角门北路,多层|高层,1.20元/平米/月,商品房住宅,3.00,3765户,30%,1994年,地上车位360个，120元/月,凯诚物业管理有限公司,北京城建物业管理有限责任公司,116.37424497520611,39.8548780562489
新宫家园北区,33629,丰台 新宫,南苑西路,高层,0.59元/平米/月,商品房住宅,0.00,暂无数据,30%,2015年,暂无数据,"阿克苏若贝尔,古驰贸易有限公司",北京泰宇物业管理有限公司,116.36977725275224,39.81983593430988
西辛北区,38635,顺义 顺义城区,西外街,多层,0.55元/平米/月,商品房住宅,1.30,暂无数据,35%,1995年,小区有停车位500个,"湾流国际,思政餐饮有限公司",北京大龙地产物业管理中心,116.65043996357605,40.14659976495903
西辛北区,38635,顺义 顺义城区,西外街,多层,0.55元/平米/月,商品房住宅,1.30,暂无数据,35%,1995年,小区有停车位500个,"湾流国际,思政餐饮有限公司",北京大龙地产物业管理中心,116.65043996357605,40.14659976495903
龙门新区B9小区,23380,门头沟 龙泉,和平街,多层|小高层,1.70元/平米/月,商品房住宅,0.00,暂无数据,35%,2013年,暂无数据,上海蒂沙物业管理有限公司,北京奥和物业管理有限公司,116.0892253029978,39.95108579286173
首城国际,93740,朝阳 双井,广渠路36号,高层,2.83元/平米/月,商品房住宅,3.20,3820户,30%,2010年,A、B、D区车位和住宅比例0.8:1；C区车位和住宅比例2:1,上海维风企业管理有限公司,北京市嘉宝物业管理有限公司,116.47585868940884,39.89867212255458
天恒花园,40715,顺义 天竺,天柱路,多层,1.80元/平米/月,商品房住宅,1.19,249户,40%,2006年,地上150元/月,北京空港天恒房地产开发有限公司,北京天竺空港物业管理有限公司,116.56679541381162,40.07484355534475
后南仓小区,50204,通州 通州北苑,新城南街,多层,0.60元/平米/月,商品房住宅,1.17,1674户,30%,1990年,250,通州区住房和城乡建设委员会,北京通运达物业管理有限公司,116.65802067394421,39.90801829621002
中关村港沟16号院,108000,海淀 苏州桥,港沟路16号,多层,0.50元/平米/月,商品房住宅,0.00,暂无数据,暂无数据,1978年,暂无数据,无,北京亿方物业管理有限责任公司,116.30964243615054,39.98662567003797
鹤巢居,64949,丰台 刘家窑,横五条,小高层|高层,2.20元/平米/月,商品房住宅,0.00,暂无数据,暂无数据,2005年,暂无数据,抚顺钢铁公司物业管理有限公司,北京龙腾洪都物业管理有限责任公司,116.43267894015523,39.85683467067936
国惠村,35758,昌平 南邵镇,景昌南街2号,小高层|高层,0.00元/平米/月,商品房住宅,2.20,暂无数据,30%,2011年,暂无数据,上海灿虹企业物业管理有限公司,国奥村物业服务有限公司,116.30433928957238,40.22054442207961
奥北中心南区,34997,昌平 立水桥,汤立路201号,高层,1.78元/平米/月,办公,3.00,暂无数据,30%,2003年,暂无数据,上海制皂,北京富瑞物业管理有限公司,116.41765792457012,40.06034036698043
金盏嘉园C区,46391,朝阳 大山子,金港南路,多层|小高层,1.20元/平米/月,动迁配套房,0.00,暂无数据,暂无数据,暂无数据,暂无数据,北京金色朝阳房地产开发有限公司,京旺物业公司,116.56085779405177,40.01514325425058
半岛国际公寓,92178,朝阳 太阳宫,太阳宫南街,高层,1.80元/平米/月,商品房住宅,3.50,788户,30%,2005年,分地上电子3层停车位共200个。地下B1 B2层 车位约500个 物业统一出租 不售,"上海塘头建材有限公司,中企物业管理有限公司",北京金隅嘉华物业管理有限公司,116.45761527229836,39.976815371046555
中体奥林匹克花园(别墅),41867,丰台 长辛店,长兴路12号,低层,0.00元/平米/月,商品房住宅,0.71,暂无数据,40%,2007年,暂无数据,北京创世愿景房地产开发有限公司,2.3,116.19501595816082,39.84162407904451
西山甲一号,57955,丰台 长辛店,长顺二路,高层,4.31元/平米/月,商品房住宅,2.50,暂无数据,40%,2018年,暂无数据,北京金隅房地置业有限公司,北京金海燕物业,116.19400401700382,39.86874305010719
海淀九号,87829,海淀 万寿路,莲宝路9号,高层,2.50元/平米/月,商品房住宅,3.00,暂无数据,30%,1998年,暂无数据,上海恒驰信息系统有限公司、上海普丘信息系统有限公司、脉猎商务咨询(上海)有限公司、上海亦乐投资有限公司、上海欧博律师事务所,北京新亮点物业管理有限公司,116.30418028949711,39.89612440246773
西山国际城,68421,海淀 田村,阜石路甲69号,多层,4.20元/平米/月,商业,1.38,1468户,33%,2011年,地上停车位数量：500个、150元/月，地下停车位数量：1000个，300/月 目前正在建设中,上海安亭经济发展中心,北京昌泽物业管理有限公司,116.23583325375375,39.933046002802584
欣桥家园,25000,通州 土桥,张采路,多层|小高层,2.00元/平米/月,小产权房,1.35,暂无数据,25%,2006年,暂无数据,上海爱邦城房地产开发有限公司,和信天源物业管理公司,116.70505487248005,39.87240942066068
住总香榭8号,100575,朝阳 南磨房,西大望路24号,高层,4.86元/平米/月,商品房住宅,2.60,暂无数据,30%,2017年,暂无数据,北京祥业房地产有限公司,暂无数据,116.4815992209398,39.921827640269136
冠城大通澜石,131105,朝阳 太阳宫,太阳宫南街25号,小高层|高层|超高层,3.88元/平米/月,商品房住宅,3.20,463户,30%,2013年,320,北京冠城新泰房地产开发有限公司,北京冠城酒店物业管理有限公司,116.45514295587378,39.976102397310044
永旭嘉园,21666,大兴 瀛海镇,瀛达路,多层,0.00元/平米/月,商品房住宅,0.00,暂无数据,30%,暂无数据,暂无数据,北京正华永旭房地产开发有限公司,无,116.44296588570273,39.760805638176436
水墨林溪,22006,房山 窦店,大窦路,多层|小高层,1.50元/平米/月,商品房住宅,1.42,5200户,47%,2006年,车位充足、4―6万/个，可办产权,北京龙建集团,北京龙建诚信物业管理有限公司,116.07232197804709,39.694298110329115
中冶德贤公馆,65395,大兴 旧宫,德贤路,高层,4.52元/平米/月,商品房住宅,3.53,668户,35%,2016年,车位配比为1:1.2,北京中冶名弘置业有限公司,北京世邦魏理仕物业管理服务有限公司,116.43578662806698,39.82604062389916
双兴北区,36969,顺义 顺义城区,双兴北路,多层,0.55元/平米/月,商品房住宅,1.20,1896户,15%,1998年,100元/车位/月，1：1,越也物业管理有限公司,北京金房阳光物业管理有限公司,116.66092121260537,40.14752761731012
迎喜家园,43882,通州 土桥,玉桥中路,多层,2.00元/平米/月,商品房住宅,1.20,1200户,30%,2001年,200个,北京子轶房地产开发有限公司,北京求实信物业管理有限公司,116.69392405873646,39.88028245790498
金顶阳光槐满园,44473,石景山 金顶街,金顶北路20号,高层,1.80元/平米/月,商品房住宅,0.00,暂无数据,30%,2016年,暂无数据,黎安物业管理有限公司,北京华清物业管理有限责任公司,116.17052419741458,39.93527381000051
新东路4号小区,69229,朝阳 三里屯,新东路4号,高层,0.90元/平米/月,商品房住宅经济适用房,0.00,暂无数据,暂无数据,1983年,暂无数据,暂无数据,鸿运承物业管理中心,116.45743912536751,39.946045505799816
天通苑西三区,36955,昌平 天通苑,立汤路,多层|高层,1.25元/平米/月,经济适用房,3.50,2600户,30%,2015年,地上150/月，地下车库180元,北京顺天通房地产开发有限公司,北京顺天通物业管理公司,116.41350901074175,40.10863904478827
东亚印象台湖,41550,通州 台湖镇,台湖大街23号,高层,2.50元/平米/月,商品房住宅,1.96,暂无数据,32%,2014年,暂无数据,北京硕日新宇投资有限公司,北京东亚时代物业管理有限公司,116.65256122220731,39.8445778322157
碧桐园,66768,海淀 四季青,田村路,多层,2.29元/平米/月,商品房住宅,1.60,800户,30%,2008年,地上150元一月 地下车库300元一月,上海安亭经济发展中心,国贸物业酒店管理有限公司,116.23059828856381,39.93605353216656
新龙城,56494,昌平 回龙观,昌平路380号,小高层|高层,2.00元/平米/月,商品房住宅,2.45,6000户,40%,2000年,1：1.7，3500个，地上车位3500个地上：150元/车位/月年付1500,"凯兴实业有限公司,庆恒科技有限公司",新龙天宇物业管理有限公司,116.38753802648172,39.98243728295519
雅宝里社区,81527,朝阳 朝外大街,朝外西路,高层,0.56元/平米/月,商品房住宅,3.60,1500户,35%,1996年,部分停车位免费，可供您随时停车。,上海德宏物业管理有限公司,北京第一新俊物业管理有限公司,116.44277346866248,39.9232516777397
石门新居,49229,朝阳 百子湾,百子湾南三路35号,高层,0.00元/平米/月,动迁配套房,0.00,暂无数据,暂无数据,暂无数据,暂无数据,暂无数据,暂无数据,116.40229770882446,39.75674657105368
苹果社区(南区),83200,朝阳 双井,百子湾路32号,高层|超高层,2.70元/平米/月,商品房住宅,4.37,1233户,43%,1999年,南区：2152个车位，北区：地下三层共1500个,上海德丰置业管理有限公司,北京今日今典物业管理公司,116.4776739851834,39.904424069471716
中信禧园,156177,西城 陶然亭,果子巷三号,高层,3.60元/平米/月,商品房住宅,2.13,1500户,30%,2013年,车位充足，5:4。,古・摄影,中信物业服务有限公司北京分公司,116.38532323807738,39.89201076088219
京旺家园二区,29696,朝阳 朝阳周边,金港南路,多层,1.20元/平米/月,动迁配套房,0.00,暂无数据,30%,2000年,暂无数据,"上海竞翔汽车零件有限公司,上海佳化有限公司",北京华特物业管理有限公司,116.57926813878365,40.01856829158413
鸿博家园(二期F区),43774,朝阳 小红门,红坊路,高层,0.00元/平米/月,商品房住宅,0.00,暂无数据,暂无数据,暂无数据,暂无数据,暂无数据,暂无数据,116.47049230212279,39.83158552709728
角门西里晨光小区,64918,丰台 马家堡,角门北路,多层,0.80元/平米/月,商品房住宅,1.00,暂无数据,30%,2015年,150元/车位/月,隆江物业管理有限公司,久筑物业,116.38158493969759,39.8550442945013
大经厂胡同小区,116194,东城 交道口,大经厂胡同,多层,0.50元/平米/月,商品房住宅,0.00,暂无数据,暂无数据,暂无数据,暂无数据,暂无数据,暂无数据,116.37394350387696,39.91953492425472
莱茵河畔(贵园北里丁区),46889,大兴 亦庄,"亦兴北路,近南五环路",小高层,1.80元/平米/月,商品房住宅,0.00,暂无数据,暂无数据,2002年,暂无数据,北京汇瀛房地产开发有限公司,北京小小物业管理有限公司,116.48952739587922,39.79821191293532
融泽嘉园一号院,55048,昌平 龙泽,龙域中路1号,高层,2.30元/平米/月,经济适用房,2.50,10750户,38%,2014年,地上150地下400,上海复旦复华软件产业发展有限公司,长城物业集团股份有限公司,116.31380042286457,40.07445501105208
万达大湖公馆,73327,朝阳 奥林匹克公园,清林东路2号,高层,7.00元/平米/月,商品房住宅,1.98,1800户,40%,2008年,地下停车600元/月,北京万达广场房地产开发有限公司,北京万达物业管理中心,116.41262534761157,40.043733619122136
茗筑大厦,78337,西城 马连道,北京西站南路80号,高层,2.10元/平米/月,商品房住宅,2.50,暂无数据,30%,2005年,地面车位150元/月,"泰诺健（上海）国际贸易有限公司,上海蓝海智典企业管理有限公司,上海圣地美琼餐饮管理有限公司静安店",北京和安坊物业管理公司,116.32857718918152,39.88195624424045
迎风五里,19927,房山 燕山,迎风南路,多层,0.50元/平米/月,商品房住宅,0.00,暂无数据,30%,2000年,暂无数据,"上海趣志网络科技有限公司,上海喜游娱乐有限公司",向阳街道办,115.9639543538676,39.72885484439557
时代龙和大道,43688,大兴 黄村,富强路2号,小高层,1.80元/平米/月,商品房住宅,2.00,1926户,35%,2007年,1305个,上海映巷集团,亿方物业管理有限责任公司,116.34964270132281,39.743080497765
万科四季花城,47912,顺义 石门,顺白路,多层|小高层,1.20元/平米/月,商品房住宅,1.56,2500户,30%,2006年,1：0.6 停车位相对要紧,万科房地产开发有限公司,北京万科物业服务有限公司,116.64541888492803,40.1326416257468
金隅花石匠二期东区,57743,通州 土桥,土桥中街,小高层|高层,2.80元/平米/月,商品房住宅,0.00,暂无数据,暂无数据,2010年,暂无数据,北京金隅嘉业房地产开发有限公司,北京金隅大成物业管理有限公司,116.70643520872667,39.879870026309206
国锐金,62055,大兴 亦庄,荣华南路1号,小高层|超高层,4.20元/平米/月,商品房住宅,4.83,1650户,30%,2014年,停车位配比1：1.6,北京国锐房地产开发有限公司,北京澳西物业管理有限公司,116.51449022803489,39.796677571072685
乐成公馆,113435,朝阳 双井,百子湾南二路74号,高层,4.50元/平米/月,商品房住宅,2.96,484户,34%,2007年,无地上车位，地下车位每1000元/位・月,上海真心物业管理有限公司,北京金地格林物业管理有限公司,116.48102861727988,39.902187016897706
紫玉山庄,140438,朝阳 亚运村,紫玉东路1号,低层,12.50元/平米/月,商品房住宅,0.33,282户,80%,2003年,1:2,上海阳光股份有限公司,北京集祥物业管理有限公司,116.40983000052562,40.016280685274836
翠微东里,96491,海淀 公主坟,翠微路,多层|高层,1.20元/平米/月,商品房住宅,1.30,1200户,30%,2015年,无固定车位，自由停车,大润发、倾城宝贝儿童摄影、筑博设计集团（上海）股份有限公司、上海久宙化工有限公司、上海韵华电子科技有限公司、上海真迪智能科技有限公司、上海炫创企业策划有限公司、河北建工集团,中房集团物业管理公司,116.30774611321897,39.92095582797108
天时名苑,52207,通州 通州北苑,杨庄路2号,小高层|高层,1.98元/平米/月,商品房住宅,2.90,2020户,35%,2007年,共1846个,北京天时房地产开发有限公司,北京伟联物业管理有限公司,116.64036753338432,39.91101240603404
松榆东里,62976,朝阳 潘家园,西大望路,多层,1.20元/平米/月,商品房住宅,1.40,7000户,30%,1992年,地上150元/月,上海豪景物业管理有限公司,北京市北宇物业服务有限公司,116.48144597001979,39.87896909093335
鸿博家园(二期B区),40530,朝阳 小红门,小红门东路,高层,1.50元/平米/月,动迁配套房,0.00,暂无数据,暂无数据,2011年,暂无数据,小红门房地产开发有限公司,北京莱德红兴物业管理有限公司,116.47049230212279,39.83158552709728
拾景名苑,37313,石景山 古城,体育场西街20号,高层,0.00元/平米/月,商品房住宅,0.00,暂无数据,暂无数据,暂无数据,暂无数据,暂无数据,暂无数据,116.20754821833052,39.907710776594165
美伦堡,101567,朝阳 北沙滩,科荟路51号,小高层|高层,3.50元/平米/月,商品房住宅,2.50,436户,36%,2008年,总数：367个 比例：0:67 地下车位：367个 地下售价：200000（元/个） 地下租价：450（元/月）,亚琛物业管理有限公司,北京达文物业管理有限公司,116.37694114936374,40.01662812046729
水南庄壹号,42187,朝阳 四惠,惠河南街,多层,0.00元/平米/月,小产权房,0.00,暂无数据,30%,暂无数据,暂无数据,暂无数据,暂无数据,116.52220721134891,39.911335614511174
华龙苑南里,54672,昌平 霍营,黄平路,多层,0.80元/平米/月,商品房住宅,1.10,1860户,30%,1998年,无停车费,北京三江鸿泰房地产开发有限公司,华龙苑物业,116.37296237459896,40.07888110912441
广渠金茂府(东区),137184,朝阳 双井,广渠路23号,高层,6.50元/平米/月,商品房住宅,2.25,暂无数据,30%,2014年,暂无数据,中化方兴（北京）置业有限公司,北京金茂物业管理有限公司,116.49428949304871,39.89996206837323
久敬佳园,48449,丰台 和义,久敬庄路,多层,0.94元/平米/月,商品房住宅,1.49,1905户,34%,2004年,小区停车场,上海磐胤实业发展有限公司,北京安和佳物业管理有限责任公司,116.41480499610098,39.825950092538136
中关园,27757,海淀 北京大学,成府路,多层,2.90元/平米/月,商品房住宅,1.20,500户,20%,1983年,停车位380个，出租300-600元/月,"贝古设计事务所,中国建筑与室内设计师网",-,116.32499600443543,39.99786952701159
永定路西里小区,103663,海淀 五棵松,永定路,多层,2.24元/平米/月,商品房住宅,0.00,5300户,35%,1994年,360,"快板电子科技有限公司,上海久誉软件系统有限公司",北京市新京物业管理有限责任公司,116.26980968339655,39.91141634721061
武夷花园水仙园,50565,通州 武夷花园,通胡大街,多层,0.65元/平米/月,商品房住宅,1.20,1164户,30%,2003年,80元/月都是地上停车位,北京海鸿物业经营管理有限公司,北京武夷物业管理有限公司,116.70042096350682,39.92028909567151
普乐门公寓,58000,朝阳 四惠,陈家林甲2号,小高层,0.00元/平米/月,办公,0.00,暂无数据,37%,2011年,总数0个 地上车位0个,上海欧莱雅商务物业管理有限公司,普乐门物业,116.51665604261945,39.91915109115893
力源里小区,63362,朝阳 四惠,东四环中路,小高层,1.00元/平米/月,商品房住宅,2.10,暂无数据,30%,1996年,150元/车位/月,上海建盛物业管理有限公司,北京国华电力有限责任公司,116.42573081652719,39.83702062507665
都市经典家园,60420,朝阳 高碑店,甘露园19号,高层,2.88元/平米/月,商品房住宅,3.00,466户,30%,2003年,两户一位，出售8万/位,上海高阳宾馆有限公司,中原物业管理顾问有限公司,116.52709372383154,39.92028605216432
东交民巷11号院,114527,东城 崇文门,东交民巷11号,多层,1.85元/平米/月,商品房住宅,0.00,暂无数据,暂无数据,1975年,暂无数据,暂无数据,业主自管,116.4200631375731,39.90897945034868
观音景园(西区),47174,朝阳 百子湾,石板房南街,多层,3.00元/平米/月,商品房住宅,0.00,暂无数据,暂无数据,暂无数据,暂无数据,北京都市绿色家园开发有限公司,北京都市绿色家园物业管理有限公司,116.5268422881193,39.89356503087571
金台西路2号院,60913,朝阳 呼家楼,金台西路2号,多层,0.50元/平米/月,商品房住宅,1.25,暂无数据,暂无数据,1958年,暂无数据,北京住总房地产开发有限公司,金台物业,116.47730073924401,39.924344862856984
北街家园(八区),46723,昌平 沙河,高教园北三街,高层,2.20元/平米/月,商品房住宅,2.60,暂无数据,50%,2008年,暂无数据,上海联瑞电子技术有限公司,北京罗顿物业管理有限公司,116.26609303417956,40.17122939847632
高杨树南里,49325,朝阳 东坝,富东家园路,多层,0.43元/平米/月,商品房住宅,2.20,868户,35%,1986年,充足,上海大沽映像文化投资管理中心,北京富乐园物业管理有限公司,116.55774444681528,39.95367431696537
天天朝阳,62265,朝阳 甘露园,甘露园西里8号,小高层|高层,2.00元/平米/月,商品房住宅,2.60,552户,32%,2005年,地下车位，332个，1:1.5 350元/月,北京三合兴房地产开发有限公司,红|物业管理公司,116.5161160711774,39.923828187237135
顺义绿地启航国际,25194,顺义 后沙峪,顺平路,小高层,0.00元/平米/月,办公,2.08,暂无数据,30%,2016年,暂无数据,上海铭光物业管理有限公司,长城物业集团股份有限公司,116.66900210846455,40.12275919859619
景欣园,41085,通州 九棵树,京津公路,小高层,1.80元/平米/月,商品房住宅,1.80,750户,30%,2001年,充足,通州区住房和城乡建设委员会,北京东景博通物业管理有限公司,116.66960216756215,39.89597487144333
天天朝阳,62265,朝阳 甘露园,甘露园西里8号,小高层|高层,2.00元/平米/月,商品房住宅,2.60,552户,32%,2005年,地下车位，332个，1:1.5 350元/月,北京三合兴房地产开发有限公司,红|物业管理公司,116.5161160711774,39.923828187237135
连心园,34765,朝阳 常营,常新南路,高层,0.00元/平米/月,小产权房,3.60,暂无数据,30%,2005年,免费,北京亿城山水房地产开发有限公司,北京亿城物业管理有限公司,116.61479663822894,39.926051801130704
广厦鑫苑,39486,顺义 胜利,顺平路,高层,2.90元/平米/月,商品房住宅,2.60,356户,30%,1999年,234,上海新汇文化娱乐（集团）有限公司,北京大龙物业管理有限责任公司,116.66704451211415,40.122589807690225
北街家园(八区),46723,昌平 沙河,高教园北三街,高层,2.20元/平米/月,商品房住宅,2.60,暂无数据,50%,2008年,暂无数据,上海联瑞电子技术有限公司,北京罗顿物业管理有限公司,116.26609303417956,40.17122939847632
名流花园,34472,昌平 北七家,"北清路,近七星路",多层,1.00元/平米/月,商品房住宅,1.50,2600户,40%,1998年,停车位充足，免停车费。,北京名流投资有限公司,北京温尔馨物业管理有限责任公司,116.43733898981878,40.10781405729852
大糖房胡同小区,189664,西城 西四,大糖房胡同,多层,0.00元/平米/月,商品房住宅,2.00,暂无数据,暂无数据,2000年,充足,暂无数据,暂无数据,116.38085506647073,39.94562011514873
葛布店东里,49811,通州 梨园,运河大街100号,多层,1.20元/平米/月,商品房住宅,0.80,暂无数据,30%,1980年,充足,通州区住房和城乡建设委员会,北京通运达物业管理有限公司,116.67285331486386,39.896034725409734
朝阳无限芳菁苑,59413,朝阳 甘露园,朝阳路,多层,1.92元/平米/月,商品房住宅,0.00,暂无数据,暂无数据,2004年,暂无数据,上海净空环保工程有限公司,北京市京工物业管理有限责任公司,116.5181639382485,39.92420860474176
正义路10号院,109375,东城 崇文门,正义路10号,高层,0.00元/平米/月,单位集体自建房,2.35,104户,25%,2000年,暂无数据,"上海吉广文化传媒有限公司,上海智奥会展有限公司",街道代管物业,116.41162867764825,39.909490427645174
紫萝园,57585,朝阳 石佛营,姚家园路,高层,1.80元/平米/月,商品房住宅,2.50,564户,30%,2000年,"每2户1个车位,出租每月150元,只租不",上海金隆集团有限公司,北京盛兴物业管理服务有限公司,116.51129172143605,39.942251710941235
世纪星城,49909,通州 果园,通朝大街323号,小高层|高层|超高层,2.15元/平米/月,商品房住宅,2.90,2240户,30%,2005年,车位1:1，地上车位、地下车位,北京市住房贷款担保中心,北京东光物业管理股份有限公司通州第一分公司,116.6388797597987,39.89873273526466
大红门锦苑小区(A区),38094,丰台 大红门,德贤路,高层,0.50元/平米/月,商品房住宅,0.00,暂无数据,25%,2014年,暂无数据,"上海塘头建材有限公司,中企物业管理有限公司",大红门锦苑物业管理有限公司,116.42368797996694,39.82315505942889
御槐园,37288,丰台 新宫,槐房路,多层,0.00元/平米/月,小产权房,0.00,暂无数据,暂无数据,暂无数据,暂无数据,暂无数据,暂无数据,116.38039935608552,39.82018195103742
城南嘉园益嘉园,51262,丰台 马家堡,马家堡西路,多层,1.30元/平米/月,单位集体自建房,1.87,1267户,34%,2002年,地上车位150/元、地下车位350/元,上海寰舟水产有限公司,北京京丰物业管理有限责任公司,116.37904695714026,39.838821516855816
上上城第三季,15700,北京周边 燕郊,燕顺路,高层,1.70元/平米/月,商品房住宅,2.90,暂无数据,35%,2011年,暂无数据,中外合资镇江豪斯嘉房地产有限公司,三河福成房地产开发有限公司,116.75607736781907,39.9378971677632
朝庭公寓,73454,朝阳 望京,阜荣街8号,高层,2.80元/平米/月,商品房住宅,4.17,暂无数据,30%,2008年,暂无数据,"上海佳科科技有限公司,创新实业有限公司",北京鼎铭物业管理有限公司,116.49021001823625,39.99411851147661
百子湾家园(B区),55222,朝阳 百子湾,百子湾路,高层,1.50元/平米/月,商品房住宅,2.54,暂无数据,30%,2003年,暂无数据,上海飞聘房地产有限公司、拓博国际货物运输代理有限公司、思喜爱思计算机系统有限公司,北京建工物业服务有限公司,116.51931457777623,39.906200970002104
金海国际,61384,朝阳 百子湾,广渠路21号,小高层|高层|超高层,2.00元/平米/月,商品房住宅,2.80,1534户,32%,2004年,地下车位380元/月,东方房产物业管理有限公司,北京盛世物业服务有限公司,116.49900622578996,39.90098671475169
安福苑,41980,昌平 昌平县城,北京市昌平区昌平镇财神庙胡同19号,多层,3.00元/平米/月,商品房住宅,2.98,60户,30%,1985年,150元/车位/月,"上海维塔斯电脑软件有限公司,上海鸿讯物流有限公司",福苑物业,116.24535205825967,40.23339086629223
西辛北区,38635,顺义 顺义城区,西外街,多层,0.55元/平米/月,商品房住宅,1.30,暂无数据,35%,1995年,小区有停车位500个,"湾流国际,思政餐饮有限公司",北京大龙地产物业管理中心,116.65043996357605,40.14659976495903
西辛北区,38635,顺义 顺义城区,西外街,多层,0.55元/平米/月,商品房住宅,1.30,暂无数据,35%,1995年,小区有停车位500个,"湾流国际,思政餐饮有限公司",北京大龙地产物业管理中心,116.65043996357605,40.14659976495903
龙门新区B9小区,23380,门头沟 龙泉,和平街,多层|小高层,1.70元/平米/月,商品房住宅,0.00,暂无数据,35%,2013年,暂无数据,上海蒂沙物业管理有限公司,北京奥和物业管理有限公司,116.0892253029978,39.95108579286173
后南仓小区,50204,通州 通州北苑,新城南街,多层,0.60元/平米/月,商品房住宅,1.17,1674户,30%,1990年,250,通州区住房和城乡建设委员会,北京通运达物业管理有限公司,116.65802067394421,39.90801829621002
山语间(保利西山林语),58911,海淀 马连洼,黑龙潭路,多层,0.40元/平米/月,商品房住宅,0.00,3315户,30%,0000-00-00年,地下停车场,暂无数据,暂无数据,116.2217337199608,40.044811468348676
永金里住宅小区,69949,海淀 五棵松,田村路,多层,0.60元/平米/月,商品房住宅,0.00,94户,33%,1990年,150元/车位/月,上海物源经济发展有限公司,北京增光物业管理有限责任公司,116.27818018396907,39.92714376539991
康泰园,43209,大兴 兴华大街,康庄路,多层,0.88元/平米/月,商品房住宅,2.00,864户,29%,2010年,796,上海第一太平物业管理有限公司,北京翔仁物业管理有限公司,116.31664526658412,39.763452780198946
奥北中心北区,30000,昌平 立水桥,中东路400号,高层,1.78元/平米/月,办公,4.37,暂无数据,33%,2008年,暂无数据,"上海海林贸易有限公司,上海羽西科技信息有限公司",北京富瑞物业管理有限公司,116.41634091886195,40.06553306059169
峪园社区,42304,门头沟 大峪,新桥南大街,多层,1.20元/平米/月,商品房住宅,0.00,暂无数据,暂无数据,暂无数据,暂无数据,暂无数据,龙华恒业物业管理有限公司,117.10343508563814,40.15655136467106
永乐(西区),51179,石景山 鲁谷,鲁谷大街,高层,0.50元/平米/月,商品房住宅,3.50,5370户,25%,1984年,基本不要停车费，都是有地方随便停。,上海凯德集团有限公司,重德物业,116.23342202210387,39.90732410934764
角门西里晨光小区,64918,丰台 马家堡,角门北路,多层,0.80元/平米/月,商品房住宅,1.00,暂无数据,30%,2015年,150元/车位/月,隆江物业管理有限公司,久筑物业,116.38158493969759,39.8550442945013
三丰里,81578,朝阳 朝外大街,三丰胡同,低层,3.80元/平米/月,商品房住宅,0.00,2238户,30%,1978年,1600,北京搜候房地产有限责任公司,港铁（北京）房地产管理有限公司,116.85437534655392,40.3769860026615
朱辛庄北区,25892,昌平 沙河,朱辛庄东路,多层,0.50元/平米/月,小产权房,0.00,暂无数据,暂无数据,暂无数据,暂无数据,暂无数据,北京亿鑫物业管理公司,116.31708031594259,40.106392999598164
巨山馨苑,56005,海淀 四季青,杏石口路,多层,0.50元/平米/月,商品房住宅,1.50,300户,35%,2007年,150元/车位/月,北京新凤凰城房地产开发有限公司,北京新凤凰城开发公司,116.233209123698,39.9488330604661
丽泽雅园,70206,丰台 太平桥,北京西站南路168号,高层,1.05元/平米/月,商品房住宅,4.21,684户,20%,2006年,车位充足、150元/车位/月,"上海璨石资产管理有限公司,上海舍简互联网科技有限公司",东兴联物业管理有限公司,116.3294133319502,39.8767995159479
朱辛庄南区,16666,昌平 回龙观,朱辛庄东路,多层|小高层,0.50元/平米/月,小产权房,2.00,暂无数据,30%,2007年,暂无数据,暂无数据,昌平区朱辛庄物业管理公司,116.31614697651774,40.104549049680934
姚家园西里五号院,38461,朝阳 姚家园,姚家园西里5号,多层,3.50元/平米/月,动迁配套房,0.00,暂无数据,暂无数据,2007年,暂无数据,"上海塘头建材有限公司,中企物业管理有限公司",北京金隅物业管理有限责任公司,116.52193484511828,39.952459921518944
荣丰2008,141218,西城 广安门外,广安门外大街305号,小高层|高层|超高层,3.30元/平米/月,商品房住宅,3.20,9157户,36%,2003年,地下450-600元/车位/月，地上150元/车位/月,北京荣丰房地产开发有限公司,北京非常空间物业管理有限公司,116.3427521806373,39.9005649295787
双兴北区,36969,顺义 顺义城区,双兴北路,多层,0.55元/平米/月,商品房住宅,1.20,1896户,15%,1998年,100元/车位/月，1：1,越也物业管理有限公司,北京金房阳光物业管理有限公司,116.66092121260537,40.14752761731012
北辰福第(中区),54139,朝阳 常营,常营北小街2号,多层,1.80元/平米/月,商品房住宅,0.00,暂无数据,30%,2008年,住宅部分机动车总停车位共1103个，其中地上703个,"上海古沙贸易有限公司,展途化工有限公司",北辰物业管理有限公司,116.60805180113782,39.93582220976192
珠江四季悦城,30000,通州 马驹桥,兴贸三街,小高层,3.60元/平米/月,商业,2.30,3344户,50%,2015年,共1914个机动车停车位，自行车位5888个,北京珠江投资开发有限公司,广东康景物业服务有限公司北京分公司,116.58922924646505,39.76628201171778
角门东里小区,59573,丰台 角门,"角门路,近马家堡路",高层,2.00元/平米/月,商品房住宅经济适用房,3.00,暂无数据,30%,2015年,暂无数据,皇豪国际会所,北京崇文区城市建设开发公司,116.3884898548306,39.85362762140075
朝北8080,31818,通州 北关,滨榆东路,多层,1.80元/平米/月,办公,1.50,1540户,35%,2016年,共有589个，其中地上236，地下353。,北京紫石房地产开发有限公司,北京首佳物业管理有限公司,116.65383430077607,40.00485178372786
海淀九号,87829,海淀 万寿路,莲宝路9号,高层,2.50元/平米/月,商品房住宅,3.00,暂无数据,30%,1998年,暂无数据,上海恒驰信息系统有限公司、上海普丘信息系统有限公司、脉猎商务咨询(上海)有限公司、上海亦乐投资有限公司、上海欧博律师事务所,北京新亮点物业管理有限公司,116.30418028949711,39.89612440246773
呼家楼新苑,91268,朝阳 CBD,朝阳路,高层,0.50元/平米/月,商品房住宅,3.10,850户,20%,1998年,150元/车位/月,上海豪景物业管理有限公司,业主自管,116.4724382115185,39.923081732734516
半岛国际公寓,92178,朝阳 太阳宫,太阳宫南街,高层,1.80元/平米/月,商品房住宅,3.50,788户,30%,2005年,分地上电子3层停车位共200个。地下B1 B2层 车位约500个 物业统一出租 不售,"上海塘头建材有限公司,中企物业管理有限公司",北京金隅嘉华物业管理有限公司,116.45761527229836,39.976815371046555
新源时代小区,35063,大兴 生物医药基地,天河西路,高层,0.80元/平米/月,商品房住宅,3.00,2080户,30%,2012年,暂无数据,"上海创蓝文化传播有限公司,上海斯恳赫科技有限公司",北京天河众兴物业管理有限公司,116.33358569155239,39.69555056410312
定福家园北里,48607,朝阳 定福庄,定福庄路,高层,1.20元/平米/月,动迁配套房,2.50,2500户,30%,2006年,150元/车位・月,"阿克苏若贝尔,古驰贸易有限公司",定福家园物业公司,116.57197737897647,39.93120002237362
神龙辛屯小区,38501,通州 马驹桥,辛房路,多层,0.65元/平米/月,商品房住宅,1.80,暂无数据,30%,2001年,1:0.5,北京伯雅房地产开发有限公司,神龙物业,116.55037073568072,39.72417904752747
天通苑西三区,36955,昌平 天通苑,立汤路,多层|高层,1.25元/平米/月,经济适用房,3.50,2600户,30%,2015年,地上150/月，地下车库180元,北京顺天通房地产开发有限公司,北京顺天通物业管理公司,116.41350901074175,40.10863904478827
吉祥里小区,90816,朝阳 朝外大街,朝外北街,多层|高层,2.00元/平米/月,商品房住宅,2.46,3000户,25%,1996年,3500个,上海豪景物业管理有限公司,北京东旭佳业物业管理有限责任公司,116.4449707239399,39.931809384042324
园景东区,46671,通州 梨园,云景东路8号,高层,1.72元/平米/月,商品房住宅,3.41,1174户,30%,2004年,"一期地上停车场,二期地下车库",北京住总集团有限责任公司,北京园景时尚物业管理有限公司,116.67443100883104,39.888157075423244
叠翠庭院,0,石景山 苹果园,八大处路,多层,0.00元/平米/月,小产权房,0.00,暂无数据,暂无数据,暂无数据,暂无数据,暂无数据,暂无数据,116.20680752950533,39.95020693833603
工体南路小区,82532,朝阳 工体,工人体育场南路,高层,3.00元/平米/月,商品房住宅,3.00,250户,40%,1988年,150,北京绿都源房地产开发有限公司,业主自管,116.4539339264879,39.93214715519599
垡头翠城盛园社区(垡头翠成馨园C区112-144号),52374,朝阳 垡头,垡头路,小高层,0.00元/平米/月,经济适用房,0.00,暂无数据,暂无数据,暂无数据,暂无数据,暂无数据,暂无数据,116.51545761323858,39.8622104320498
朝阳门内大街75号院,103971,东城 朝阳门,朝阳门内大街75号,多层|小高层,2.60元/平米/月,单位集体自建房,2.00,暂无数据,25%,1993年,暂无数据,"上海吉广文化传媒有限公司,上海智奥会展有限公司",北京欧陆苑物业管理有限责任公司,116.43677835735001,39.93187736719212
国锐金,62055,大兴 亦庄,荣华南路1号,小高层|超高层,4.20元/平米/月,商品房住宅,4.83,1650户,30%,2014年,停车位配比1：1.6,北京国锐房地产开发有限公司,北京澳西物业管理有限公司,116.51449022803489,39.796677571072685
角门西里晨光小区,64918,丰台 马家堡,角门北路,多层,0.80元/平米/月,商品房住宅,1.00,暂无数据,30%,2015年,150元/车位/月,隆江物业管理有限公司,久筑物业,116.38158493969759,39.8550442945013
周井大院,44323,朝阳 管庄,朝阳路,多层,0.50元/平米/月,商品房住宅,1.50,1000户,30%,1994年,500,北京建材集团房地产开发公司,北京瑞康物业服务有限公司,116.59034925377489,39.91810499835002
天通苑西二区,40781,昌平 天通苑,立汤路,多层,1.25元/平米/月,经济适用房,1.10,5760户,30%,2015年,地上停车位150元/月 地下停车180元/月,北京顺天通房地产开发有限公司,北京顺天通物业管理公司,116.41350901074175,40.10863904478827
沙河一通小区,43648,昌平 沙河,沙阳路,多层|高层,0.60元/平米/月,商品房住宅,1.50,374户,30%,2001年,暂无数据,北京顺天通房地产开发有限公司,北京百姓人家物业管理中心,116.2626210833835,40.12815209307252
新建村,35135,通州 物资学院路,物资学院路3号,多层,0.00元/平米/月,小产权房,0.00,暂无数据,30%,2000年,暂无数据,通州区住房和城乡建设委员会,北京长江永顺建筑有限公司,116.3624234543559,39.98836351974585
燕京航城,26086,北京周边 燕郊,创意谷街778号,高层|超高层,1.40元/平米/月,商品房住宅,2.99,10446户,44%,2010年,车位配比 1:0.5 ，车位月租：150元/位・月,三河上京房地产开发有限公司,安家物业管理有限公司,116.4133836971231,39.910924547299565
蒲黄榆三里,66514,丰台 蒲黄榆,景泰路,多层,0.44元/平米/月,商品房住宅,1.68,890户,20%,1984年,320个,"上海芝阁信息科技服务有限公司,上海窗钩厂",亿方物业管理有限责任公司,116.4226569049026,39.87621527065085
K2海棠湾,58703,通州 梨园,云景东路,多层|高层,2.80元/平米/月,商品房住宅,2.90,2333户,30%,2008年,1205个,北京亚通房地产开发有限责任公司,浙江绿城物业管理有限公司,116.67156280916822,39.875657737733526
通惠苑,45831,通州 通州北苑,北苑42号,多层|高层,0.60元/平米/月,商品房住宅,1.20,700户,30%,2006年,充足,北京海文房地产开发有限公司,北京慧竹广羽物业管理有限公司,116.64599514791269,39.91536929578741
东高地,48945,丰台 东高地,万源北路,多层,0.50元/平米/月,商品房住宅,1.10,3000户,30%,2015年,车位充足,北京城建房地产开发有限公司,万源物业,116.42752518178337,39.813408293695794
双旗杆东里(东区),138692,西城 德胜门,双旗杆街,多层|高层,1.80元/平米/月,商品房住宅,1.30,1050户,20%,1996年,150元/月,北广集团有限责任公司,北广物业,116.39551999375168,39.97307991637083
中关园,27757,海淀 北京大学,成府路,多层,2.90元/平米/月,商品房住宅,1.20,500户,20%,1983年,停车位380个，出租300-600元/月,"贝古设计事务所,中国建筑与室内设计师网",-,116.32499600443543,39.99786952701159
乐府江南,89400,海淀 田村,"永定路,近田村路",多层|小高层,2.50元/平米/月,商品房住宅,2.10,1568户,35%,2003年,小区建于2004年，小区带有24小时热水，中水，中央空调，人车分流，小区都是9层低密度板楼，小区自带幼儿园，健身器材，占地30万亩，共有14栋楼，1162户，车位1:1,北京天平地产开发经营有限公司,长城物业集团股份有限公司,116.26856508111246,39.93383294286212
定福家园北里,48607,朝阳 定福庄,定福庄路,高层,1.20元/平米/月,动迁配套房,2.50,2500户,30%,2006年,150元/车位・月,"阿克苏若贝尔,古驰贸易有限公司",定福家园物业公司,116.57197737897647,39.93120002237362
金星园,97992,朝阳 太阳宫,太阳宫南街,高层,2.80元/平米/月,商品房住宅,2.81,3462户,35%,1995年,550元/位・,松开物业管理有限公司,北京冠城酒店物业管理有限公司,116.46358316495389,39.9737958247671
拾景名苑,37313,石景山 古城,体育场西街20号,高层,0.00元/平米/月,商品房住宅,0.00,暂无数据,暂无数据,暂无数据,暂无数据,暂无数据,暂无数据,116.20754821833052,39.907710776594165
京旺家园一区,31666,朝阳 望京,金港南路,小高层,1.20元/平米/月,动迁配套房,2.60,8106户,30%,2000年,现在还没有收取费用，都是在各自楼下停放,"上海竞翔汽车零件有限公司,上海佳化有限公司",北京华特物业管理有限公司,116.57926813878365,40.01856829158413
清缘里,62865,海淀 清河,龙岗路12号,多层|小高层|高层,1.26元/平米/月,商品房住宅,3.00,3240户,30%,2000年,充足，地上车位,北京恒泰房地产开发有限责任公司,佳瑞房地产开发公司,116.36056243483088,40.03579438624695
怡然世家,48067,通州 果园,怡乐南街,多层,1.80元/平米/月,商品房住宅,0.00,暂无数据,30%,暂无数据,暂无数据,北京建机房地产有限责任公司,北京华通世纪物业管理有限公司,116.64001512813276,39.886444271613236
卡尔生活馆,52698,大兴 亦庄,"西环北路,近荣京西街",小高层,0.00元/平米/月,商品房住宅,0.00,暂无数据,暂无数据,暂无数据,暂无数据,暂无数据,暂无数据,116.50014797209313,39.79348210434562
博雅西园,83275,海淀 马连洼,农大南路,多层|小高层,1.99元/平米/月,商品房住宅,1.08,1200户,48%,2005年,停车位1：1，出租150元/月,北京世纪兴业房地产开发有限公司,瑞赢酒店物业管理公司,116.30105463547515,40.032275291531604
新光大中心,30000,通州 北关,永顺南街,高层,5.20元/平米/月,办公,9.10,暂无数据,3%,暂无数据,暂无数据,北京华恒兴业房地产开发有限公司,第一太平戴维斯物业顾问(北京)有限公司,116.66613398964923,39.921992054901544
新安北里,95551,西城 白纸坊,白纸坊西街,多层,0.50元/平米/月,单位集体自建房,1.60,1200户,26%,2015年,地面车位150元/月,"东方海外货柜航运(中国)有限公司,乔达国际货运(上海)有限公司,上海市国际展览有限公司,大日精化(上海)贸易有限公司,上海凯璞庭资产管理有限公司,上海金丰投资有限公司,虹软（上海）多媒体科技有限公司",北京邦克物业管理有限公司,116.36936268475938,39.88533532059923
长馨园小区,29119,丰台 长辛店,二七厂路,多层,0.50元/平米/月,商品房住宅,0.00,暂无数据,暂无数据,暂无数据,暂无数据,暂无数据,无,116.20868709005607,39.84203217190071
安乐馨居,16200,怀柔 怀柔城区,兴盛路,高层,0.00元/平米/月,动迁配套房,0.00,暂无数据,暂无数据,暂无数据,暂无数据,暂无数据,暂无数据,116.70288196128196,40.29897706499982
北街家园(八区),46723,昌平 沙河,高教园北三街,高层,2.20元/平米/月,商品房住宅,2.60,暂无数据,50%,2008年,暂无数据,上海联瑞电子技术有限公司,北京罗顿物业管理有限公司,116.26609303417956,40.17122939847632
中弘北京像素北区,39130,朝阳 常营,五里桥一街1号,高层,2.10元/平米/月,办公,0.00,暂无数据,40%,2009年,暂无数据,北京中弘投资有限公司,北京中弘文昌物业管理有限公司,116.6220979755835,39.93429110527489
新建村,35135,通州 物资学院路,物资学院路3号,多层,0.00元/平米/月,小产权房,0.00,暂无数据,30%,2000年,暂无数据,通州区住房和城乡建设委员会,北京长江永顺建筑有限公司,116.3624234543559,39.98836351974585
西辛南区,40183,顺义 石门,西外街,多层|高层,0.58元/平米/月,商品房住宅,1.20,2700户,35%,1997年,免费停车 车位充足,上海市长宁区虹桥临空经济园区管委会,北京紫郡物业公司,116.64964442421642,40.140458134375834
欣桥家园,25000,通州 土桥,张采路,多层|小高层,2.00元/平米/月,小产权房,1.35,暂无数据,25%,2006年,暂无数据,上海爱邦城房地产开发有限公司,和信天源物业管理公司,116.70505487248005,39.87240942066068
雅宝里社区,81527,朝阳 朝外大街,朝外西路,高层,0.56元/平米/月,商品房住宅,3.60,1500户,35%,1996年,部分停车位免费，可供您随时停车。,上海德宏物业管理有限公司,北京第一新俊物业管理有限公司,116.44277346866248,39.9232516777397
百旺家苑,79155,海淀 马连洼,马连洼北路,多层,1.18元/平米/月,商品房住宅,1.10,4800户,50%,2003年,地上车位600个，地下车位400个，售价8万元/个,"上海竞翔汽车零件有限公司,上海佳化有限公司",北京华特物业管理有限公司,116.27535779788728,40.035286293337194
都市芳园,42476,昌平 天通苑,太平庄北街,低层,2.00元/平米/月,商品房住宅,0.40,2000户,40%,1996年,1：3，全部地上，停车全部免费,北京都市芳园房地产开发有限公司,北京都市芳园房地产开发有限公司,116.39788936436479,40.08763059151733
玲珑花园,100559,海淀 定慧寺,蓝靛厂南路59号,多层,3.88元/平米/月,商品房住宅,0.80,300户,45%,2001年,停车位400个、地上车位150元/月,北京玲珑花园物业发展有限公司,玲珑花园物业管理有限公司,116.29981829760176,39.94432329171225
玉桥南里(南区),45604,通州 乔庄,梨园北街,多层,0.50元/平米/月,商品房住宅,0.00,暂无数据,暂无数据,1995年,暂无数据,通州区住房和城乡建设委员会,北京高腾物业管理有限公司,116.69229893423837,39.89376778018542
三合北巷2号院,0,大兴 兴华大街,兴业大街,高层,0.00元/平米/月,小产权房,0.00,暂无数据,暂无数据,暂无数据,暂无数据,暂无数据,暂无数据,116.32948438791603,39.74010834536382
中弘北京像素北区,39130,朝阳 常营,五里桥一街1号,高层,2.10元/平米/月,办公,0.00,暂无数据,40%,2009年,暂无数据,北京中弘投资有限公司,北京中弘文昌物业管理有限公司,116.6220979755835,39.93429110527489
天裕昕园(东区),26924,顺义 后沙峪,天北路,高层,3.00元/平米/月,商品房住宅,0.00,暂无数据,暂无数据,暂无数据,暂无数据,北京天竺房地产开发公司,空港物业,116.53443844934222,40.09058951988557
悠乐汇,38801,朝阳 望京,阜安东路,高层,3.90元/平米/月,办公,4.93,700户,50%,2004年,地下车位450/月，共有停车位1038个,富士康科技集团,第一太平戴维斯物业顾问(北京)有限公司,116.48381929317715,39.99475591340739
杨闸新村,25556,朝阳 管庄,朝阳路,高层,0.00元/平米/月,动迁配套房,0.00,暂无数据,暂无数据,暂无数据,暂无数据,暂无数据,暂无数据,116.6149850128944,39.91731607752669
风度柏林,78218,朝阳 大望路,西大望路59号,小高层|高层,2.66元/平米/月,商品房住宅,2.80,1300户,30%,2003年,地上200/月，地下500/月，车位比较紧缺,北京融利达房地产开发有限公司,北京同舟物业管理有限公司,116.48234104162995,39.89530927794706
葵花社,55932,通州 果园,运河大街9号,高层,1.80元/平米/月,商品房住宅,3.18,1600户,33%,2006年,360个,北京蓝蔚恒房地产开发有限公司,东方福瑞（北京）物业管理有限公司,116.65375704650221,39.897779670255176
金隅万科城,44619,昌平 昌平县城,南环路,高层,2.40元/平米/月,商品房住宅,3.07,4449户,30%,2010年,924个，1：0.5,上海百亿龙科技有限公司,北京万科物业服务有限公司,116.64115705409705,40.17786050255571
瑞士公寓,100643,东城 东四十条,工体北路66号,高层,8.00元/平米/月,商品房住宅,4.00,198户,30%,2007年,1:1.3、总数：246个 比例：0：246 地下车位：246个,北京安泰置业房地产开发有限公司,北京锦江北方物业管理有限公司,116.4570664974623,39.93959774927739
向军南里,82863,朝阳 呼家楼,东三环北路,低层|高层,1.20元/平米/月,商品房住宅,1.72,1000户,30%,2002年,180,暂无数据,单位自管物业,116.46647022903241,39.92694920781211
前进花园玉兰苑,43809,顺义 石门,顺白路,多层,1.50元/平米/月,商品房住宅,1.40,1500户,25%,2005年,停车位充足,北京建升房地产开发有限公司,建升物业,116.64355786540301,40.14163992622406
朝阳捷座,61389,朝阳 石佛营,石佛营东里134号,小高层|高层,1.88元/平米/月,商品房住宅,2.50,400户,35%,2005年,停车位：2：1,"上海德玛物流有限公司,ABB能源电子有限公司",中铁平安物业管理公司,116.514157495674,39.940703049098175
德鑫嘉园,37272,丰台 新宫,槐房北路2号,多层|小高层|高层,0.00元/平米/月,小产权房,0.00,暂无数据,38%,2005年,暂无数据,暂无数据,无,116.37952907770746,39.822622791118356
大兴金茂悦,38181,大兴 大兴周边,龙江路,小高层,0.00元/平米/月,商品房住宅,0.00,暂无数据,暂无数据,暂无数据,暂无数据,暂无数据,暂无数据,116.49062171165146,39.760358856544805
御槐园,37288,丰台 新宫,槐房路,多层,0.00元/平米/月,小产权房,0.00,暂无数据,暂无数据,暂无数据,暂无数据,暂无数据,暂无数据,116.38039935608552,39.82018195103742
龙府花园,41107,顺义 胜利,中山北大街,多层,0.50元/平米/月,商品房住宅,1.50,1155户,35%,2000年,150元/车位/月,北京龙脉温泉房地产开发有限责任公司,北京昌振顺达物业管理有限公司,115.98980839491972,39.71489590254255
首座御园(三期),35076,大兴 枣园,科苑路30号,小高层,0.00元/平米/月,商品房住宅,0.00,暂无数据,暂无数据,暂无数据,暂无数据,暂无数据,暂无数据,116.37161967735321,39.760945204837654
上上城第三季,15700,北京周边 燕郊,燕顺路,高层,1.70元/平米/月,商品房住宅,2.90,暂无数据,35%,2011年,暂无数据,中外合资镇江豪斯嘉房地产有限公司,三河福成房地产开发有限公司,116.75607736781907,39.9378971677632
朝庭公寓,73454,朝阳 望京,阜荣街8号,高层,2.80元/平米/月,商品房住宅,4.17,暂无数据,30%,2008年,暂无数据,"上海佳科科技有限公司,创新实业有限公司",北京鼎铭物业管理有限公司,116.49021001823625,39.99411851147661
百子湾家园(B区),55222,朝阳 百子湾,百子湾路,高层,1.50元/平米/月,商品房住宅,2.54,暂无数据,30%,2003年,暂无数据,上海飞聘房地产有限公司、拓博国际货物运输代理有限公司、思喜爱思计算机系统有限公司,北京建工物业服务有限公司,116.51931457777623,39.906200970002104
金海国际,61384,朝阳 百子湾,广渠路21号,小高层|高层|超高层,2.00元/平米/月,商品房住宅,2.80,1534户,32%,2004年,地下车位380元/月,东方房产物业管理有限公司,北京盛世物业服务有限公司,116.49900622578996,39.90098671475169
安福苑,41980,昌平 昌平县城,北京市昌平区昌平镇财神庙胡同19号,多层,3.00元/平米/月,商品房住宅,2.98,60户,30%,1985年,150元/车位/月,"上海维塔斯电脑软件有限公司,上海鸿讯物流有限公司",福苑物业,116.24535205825967,40.23339086629223
西辛北区,38635,顺义 顺义城区,西外街,多层,0.55元/平米/月,商品房住宅,1.30,暂无数据,35%,1995年,小区有停车位500个,"湾流国际,思政餐饮有限公司",北京大龙地产物业管理中心,116.65043996357605,40.14659976495903
西辛北区,38635,顺义 顺义城区,西外街,多层,0.55元/平米/月,商品房住宅,1.30,暂无数据,35%,1995年,小区有停车位500个,"湾流国际,思政餐饮有限公司",北京大龙地产物业管理中心,116.65043996357605,40.14659976495903
首城国际,93740,朝阳 双井,广渠路36号,高层,2.83元/平米/月,商品房住宅,3.20,3820户,30%,2010年,A、B、D区车位和住宅比例0.8:1；C区车位和住宅比例2:1,上海维风企业管理有限公司,北京市嘉宝物业管理有限公司,116.47585868940884,39.89867212255458
天恒花园,40715,顺义 天竺,天柱路,多层,1.80元/平米/月,商品房住宅,1.19,249户,40%,2006年,地上150元/月,北京空港天恒房地产开发有限公司,北京天竺空港物业管理有限公司,116.56679541381162,40.07484355534475
后南仓小区,50204,通州 通州北苑,新城南街,多层,0.60元/平米/月,商品房住宅,1.17,1674户,30%,1990年,250,通州区住房和城乡建设委员会,北京通运达物业管理有限公司,116.65802067394421,39.90801829621002
中关村港沟16号院,108000,海淀 苏州桥,港沟路16号,多层,0.50元/平米/月,商品房住宅,0.00,暂无数据,暂无数据,1978年,暂无数据,无,北京亿方物业管理有限责任公司,116.30964243615054,39.98662567003797
山语间(保利西山林语),58911,海淀 马连洼,黑龙潭路,多层,0.40元/平米/月,商品房住宅,0.00,3315户,30%,0000-00-00年,地下停车场,暂无数据,暂无数据,116.2217337199608,40.044811468348676
天通苑西三区,36955,昌平 天通苑,立汤路,多层|高层,1.25元/平米/月,经济适用房,3.50,2600户,30%,2015年,地上150/月，地下车库180元,北京顺天通房地产开发有限公司,北京顺天通物业管理公司,116.41350901074175,40.10863904478827
颐和山庄(别墅),45633,海淀 西北旺,永丰中路99号,低层,0.00元/平米/月,小产权房,0.64,暂无数据,38%,1998年,暂无数据,北京同力盛业责任有限公司,暂无数据,116.24656306391768,40.056215484391075
清芷园,107034,西城 陶然亭,育新街47号,高层,3.11元/平米/月,商品房住宅,2.50,994户,50%,2003年,停车位1：1，出租地上150元/月（目前无车位） 地下1000元/月（有空位） 小区停车位目前有少数在售，目前价格为35-40万一个。,建纬伟业管理有限公司,三原物业管理有限公司,116.37865116373256,39.87990857724562
大雄城市花园,47701,大兴 亦庄,天华西路,多层,2.00元/平米/月,商品房住宅,1.60,1424户,43%,2000年,充足,上海泰府物业管理有限公司,北京中协物业管理公司,116.50087155718143,39.80725975357065
燕保祈东家园二期,40000,朝阳 垡头,化工路,高层,0.00元/平米/月,动迁配套房,0.00,暂无数据,暂无数据,暂无数据,暂无数据,暂无数据,暂无数据,116.54298699406682,39.85775708479542
紫南家园(南区),61209,朝阳 欢乐谷,大柳树路,小高层,0.52元/平米/月,商品房住宅,2.00,2520户,34%,2015年,150/月,上海园林大厦物业管理有限公司,北京瑛达园物业管理公司,116.50475771664813,39.879732433201816
增光路43号院,95237,海淀 增光路,海淀区首体南路甘家口增光路43号,多层,0.00元/平米/月,商品房住宅,1.10,216户,30%,1980年,充足,无,业主自管,116.32346574099917,39.934263511882726
万杰医院家属楼,43774,朝阳 朝青板块,青年路北小区10号,多层,0.00元/平米/月,商品房住宅,0.00,暂无数据,暂无数据,暂无数据,暂无数据,暂无数据,暂无数据,116.52398037659506,39.94323084308083
观音惠园,49686,朝阳 四惠,高碑店路,多层,0.60元/平米/月,商品房住宅经济适用房,1.46,1090户,35%,2006年,150元/车位/月,"北京京海集团上海有限公司,上海智达科技有限公司",北京康居安物业管理有限公司,116.52762399357408,39.89635613684839
尚峰尚水,61476,海淀 温泉,温北路8号,多层,3.00元/平米/月,商品房住宅,1.50,2822户,30%,2012年,3000,北京世纪正源房地产开发有限公司,北京正源和美物业服务有限公司,116.14099590716553,40.10187605719139
神龙潼关三区,20202,通州 马驹桥,t马路,小高层,0.65元/平米/月,小产权房,1.50,1600户,10%,2006年,车位充足,上海绿地星奕房地产开发有限公司,北京神龙童关物业管理有限公司,116.55092037917818,39.76008471255157
北人家园,54320,通州 新华大街,新华东街48号,高层,0.00元/平米/月,单位集体自建房,0.00,暂无数据,暂无数据,暂无数据,暂无数据,暂无数据,暂无数据,116.68189404117737,39.9075480569904
瀛海家园融园,35767,大兴 瀛海镇,坤路3号,高层,0.00元/平米/月,商品房住宅,暂无数据,暂无数据,暂无数据,暂无数据,暂无数据,暂无数据,无,116.44120799165024,39.766634054235176
金地朗悦润园,49557,房山 良乡,文昌东路,多层,2.98元/平米/月,商品房住宅,0.00,暂无数据,30%,2014年,暂无数据,上海第一太平戴维斯物业管理有限公司,北京金地物业,116.19732379484651,39.74465703647514
御园B区,28150,大兴 庞各庄,民生路3号,高层,0.80元/平米/月,商品房住宅,0.00,暂无数据,40%,2007年,暂无数据,北京兴业万发房地产开发有限公司,北京高力国际物业管理有限公司,116.32721778345326,39.63416735416128
盛今大厦,60776,丰台 六里桥,莲宝路1号,高层,2.00元/平米/月,商品房住宅,1.33,暂无数据,35%,2001年,暂无数据,上海锦森物业管理有限公司,北京中视盛元物业有限公司,116.30713409767503,39.89523918231763
美丽亚洲假日花园,52427,朝阳 高碑店,兴隆西街8号,小高层,1.65元/平米/月,商品房住宅,2.32,500户,46%,1999年,300元/位・月,现在还不确定,香港中原物业顾问有限公司,116.53366797270631,39.92076906888306
远大园一区,93209,海淀 世纪城,远大西路,高层,2.52元/平米/月,商品房住宅,3.10,暂无数据,30%,2001年,暂无数据,北京金源鸿大房地产开发有限公司,北京世纪颐和物业管理有限责任公司,116.28634452342705,39.96167834341809
丽泽雅园,70206,丰台 太平桥,北京西站南路168号,高层,1.05元/平米/月,商品房住宅,4.21,684户,20%,2006年,车位充足、150元/车位/月,"上海璨石资产管理有限公司,上海舍简互联网科技有限公司",东兴联物业管理有限公司,116.3294133319502,39.8767995159479
欢乐嘉苑,18518,通州 张家湾,张采路,多层,1.27元/平米/月,小产权房,1.80,暂无数据,暂无数据,2015年,暂无数据,北京龙港国际投资有限公司,业主自管,116.69705564157479,39.771459169364654
雅苑,17845,房山 韩村河,岳琉路,多层|高层,0.80元/平米/月,商品房住宅,1.20,暂无数据,42%,2002年,暂无数据,北京韩村河房地产开发有限公司,北京地杰物业管理有限公司,115.99783025863229,39.606530047951715
北坞嘉园,82001,海淀 西山,北坞嘉园北小街,多层,0.80元/平米/月,商品房住宅,1.20,1668户,20%,2010年,1:1,上海总泉物业管理有限公司,上海总泉物业管理有限公司,116.5042052587595,39.99329357665045
东方夏威夷,27971,北京周边 燕郊,北蔡街301号,多层,1.70元/平米/月,商品房住宅,0.44,3084户,35%,2008年,地下车库,三河兴达房地产开发有限公司,廊坊亿人物业,116.34249697204191,39.85243705591868
九龙花园,63016,朝阳 双井,广渠路31号,高层,1.87元/平米/月,商品房住宅,2.90,2340户,39%,1998年,地上车位每月每位150元，地下车位350元/月,上海安垦集团物业管理有限公司,北京德诚物业管理有限公司,116.4772281561588,39.90004219186226
永利国际,81829,朝阳 三里屯,工人体育场体北路,高层,0.00元/平米/月,商品房住宅,4.32,暂无数据,30%,2010年,暂无数据,北京京茂房地产开发有限公司,达尔文国际物业有限公司,116.12384704208166,39.92689917474497
朱辛庄北区,25892,昌平 沙河,朱辛庄东路,多层,0.50元/平米/月,小产权房,0.00,暂无数据,暂无数据,暂无数据,暂无数据,暂无数据,北京亿鑫物业管理公司,116.31708031594259,40.106392999598164
定福庄北里1号院,53903,朝阳 定福庄,定福庄路,多层,0.00元/平米/月,商品房住宅,1.60,2482户,20%,2000年,150元/车位/月,北京市中建一局第五建筑公司,业主自管,116.5680502567785,39.92374435676602
亿朋苑小区,44308,丰台 玉泉营,南三环中路,多层,1.00元/平米/月,商品房住宅,1.50,1000户,40%,2005年,车位充足,天地祥房地产开发商,恒基物业,116.3424315754008,39.85093176915371
黄村西里社区,44161,大兴 黄村,兴华大街,多层,0.80元/平米/月,商品房住宅,1.50,1048户,30%,1986年,150元/车位/月,上海杰森物业服务发展有限公司,黄村西里物业,116.34263369414055,39.740988369305114
永乐(西区),51179,石景山 鲁谷,鲁谷大街,高层,0.50元/平米/月,商品房住宅,3.50,5370户,25%,1984年,基本不要停车费，都是有地方随便停。,上海凯德集团有限公司,重德物业,116.23342202210387,39.90732410934764
望京西园四区,63677,朝阳 望京,阜通西大街,高层,2.00元/平米/月,商品房住宅,0.00,暂无数据,暂无数据,1997年,暂无数据,"北京京海集团上海有限公司,上海智达科技有限公司",北京市望京实业总公司振安物业管理部,116.4778455615358,40.00247038502748
西二旗铭科苑,61036,海淀 西二旗,安宁庄西路29号,多层|高层,0.71元/平米/月,商品房住宅,2.00,暂无数据,31%,1997年,暂无数据,北京安达房地产开发公司,北京东居物业管理有限公司,116.32140368070102,40.05797115299118
云景豪庭,37476,通州 梨园,北京市通州区云景东路349号,多层|小高层,1.20元/平米/月,小产权房,0.00,暂无数据,40%,2001年,暂无数据,北京博宏房地产开发有限公司,北京广亨永利物业管理有限公司,116.6740939646037,39.88388155975017
电子城小区,56369,朝阳 酒仙桥,驼房营南路,高层,2.00元/平米/月,商品房住宅,2.90,2000户,37%,2001年,1500个停车位，出租地下车库280元/月，地上免费。,"阿克苏若贝尔,古驰贸易有限公司",北京弘通物业管理有限责任公司,116.50942504258633,39.97124407926839
国锐金,62055,大兴 亦庄,荣华南路1号,小高层|超高层,4.20元/平米/月,商品房住宅,4.83,1650户,30%,2014年,停车位配比1：1.6,北京国锐房地产开发有限公司,北京澳西物业管理有限公司,116.51449022803489,39.796677571072685
沙河一通小区,43648,昌平 沙河,沙阳路,多层|高层,0.60元/平米/月,商品房住宅,1.50,374户,30%,2001年,暂无数据,北京顺天通房地产开发有限公司,北京百姓人家物业管理中心,116.2626210833835,40.12815209307252
体育馆路13号院,92594,东城 天坛,体育馆路13号,多层,1.30元/平米/月,商品房住宅,2.00,暂无数据,30%,1987年,地上停车位,北京中体奥园物业管理有限公司,单位自管,116.4285364941265,39.89065962914554
门头馨园南区,53547,海淀 香山,门头馨东街,多层,1.00元/平米/月,动迁配套房,0.00,暂无数据,35%,暂无数据,暂无数据,暂无数据,四季嘉诚物业服务有限公司,116.23002669676781,39.98176499624571
瀛海家园逸园,35035,大兴 瀛海镇,坤路1号,高层,0.00元/平米/月,商品房住宅,暂无数据,暂无数据,暂无数据,暂无数据,暂无数据,暂无数据,无,116.4409905118863,39.76991549127346
后现代城(D区),69404,朝阳 双井,百子湾南一路,高层,3.50元/平米/月,商品房住宅,3.33,暂无数据,33%,2002年,暂无数据,北京金马文华园房地产开发有限公司,北京西宇嘉业物业管理有限公司,116.28626547254218,40.12898296911789
法院宿舍,60774,朝阳 朝阳公园,六里屯北里16号,多层|小高层,0.70元/平米/月,商品房住宅,2.10,185户,32%,1986年,85,北京房地产开发商有限公司,业主自管,116.48179496171042,39.93851054930245
紫芳园(一区),69978,丰台 方庄,方庄路,多层,0.62元/平米/月,商品房住宅,2.00,1532户,31%,2002年,80,上海映巷集团,北京大方物业管理有限责任公司,116.44975033806685,39.87078025467207
华龙苑中里(北区),57083,昌平 霍营,黄平路,多层,0.80元/平米/月,商品房住宅,1.50,1250户,30%,1995年,地上及地下车库停车，150元/位・月,北京三江鸿泰房地产开发有限公司,兴华物业管理公司,116.37532887063446,40.086440677163694
西小营新村,21250,海淀 马连洼,温阳路,多层|高层,0.00元/平米/月,小产权房,0.00,192户,20%,2000年,暂无数据,"上海康森国际贸易科技有限公司,上海蓝声健康咨询有限公司",无,116.1668299160048,40.086438469126854
融泽嘉园一号院,55048,昌平 龙泽,龙域中路1号,高层,2.30元/平米/月,经济适用房,2.50,10750户,38%,2014年,地上150地下400,上海复旦复华软件产业发展有限公司,长城物业集团股份有限公司,116.31380042286457,40.07445501105208
拾景名苑,37313,石景山 古城,体育场西街20号,高层,0.00元/平米/月,商品房住宅,0.00,暂无数据,暂无数据,暂无数据,暂无数据,暂无数据,暂无数据,116.20754821833052,39.907710776594165
垂虹园(蓝靛厂),99269,海淀 世纪城,蓝靛厂中路,高层,2.52元/平米/月,商品房住宅,2.56,2800户,35%,2004年,1:0.9，地下车位，租500元/月，售价18万左右,北京金源鸿大房地产开发有限公司,北京世纪颐和物业管理有限责任公司,116.29922254138755,39.952307818081195
角门西里晨光小区,64918,丰台 马家堡,角门北路,多层,0.80元/平米/月,商品房住宅,1.00,暂无数据,30%,2015年,150元/车位/月,隆江物业管理有限公司,久筑物业,116.38158493969759,39.8550442945013
上上城第二季,22727,北京周边 燕郊,北蔡街,高层,1.70元/平米/月,商品房住宅,2.74,3000户,36%,2009年,充足,工商银行闵行支行,三河隆盛物业管理公司,116.75607736781907,39.9378971677632
天通苑西二区,40781,昌平 天通苑,立汤路,多层,1.25元/平米/月,经济适用房,1.10,5760户,30%,2015年,地上停车位150元/月 地下停车180元/月,北京顺天通房地产开发有限公司,北京顺天通物业管理公司,116.41350901074175,40.10863904478827
太玉园西区,20000,通州 土桥,张采路,多层,0.00元/平米/月,小产权房,0.00,暂无数据,暂无数据,2005年,暂无数据,北京成龙房地产开发有限公司,暂无数据,116.70625482898028,39.857181676540336
金泰先锋,76651,朝阳 百子湾,石门村路,小高层,2.60元/平米/月,商品房住宅,2.20,1262户,30%,2008年,150元/位・月，车位充足,北京金泰恒业有限责任公司,北京金泰物业管理有限公司第二分公司,116.5063854462322,39.90233293643656
科育社区,129293,海淀 中关村,中关村南路49号,多层,0.50元/平米/月,商品房住宅,1.89,1100户,30%,1981年,停车免费,明华物业管理有限公司,北京科住物业管理有限公司,116.32824059410692,39.98771444856268
奥林匹克花园(四期),63138,朝阳 东坝,"东坝南三街,近单店中路",小高层,1.50元/平米/月,商品房住宅,0.00,暂无数据,暂无数据,2009年,暂无数据,上海盛顺餐饮有限公司,北京奥园物业管理有限公司,116.54858801875208,39.96581009448197
南庭新苑北区,56250,丰台 新宫,槐房西路,高层,1.50元/平米/月,商品房住宅,3.50,暂无数据,30%,2009年,车位充足，有地上停车位和地下停车位，北区有停车楼。目前不收取停车费,"快板电子科技有限公司,上海久誉软件系统有限公司",北京京丰物业管理有限责任公司,116.3754772707047,39.81294522911706
翠北嘉园,31395,海淀 上庄,沙阳路,小高层,0.00元/平米/月,小产权房,0.00,暂无数据,暂无数据,暂无数据,暂无数据,暂无数据,暂无数据,116.20902808682766,40.131660749023546
甜水园东里,66734,朝阳 甜水园,甜水园东街,多层,0.00元/平米/月,商品房住宅单位集体自建房,1.50,2646户,28%,1984年,甜水园东里内都是地上的车位，车位租金一年1800元，基本上都被个人承租，车位紧缺，可提前和物业打招呼申请，以免影响停车！,北京市崇文区城市建设开发公司,三元物业,116.48934602799675,39.931691053087214
六里屯东里,60493,朝阳 朝阳公园,姚家园路,多层,0.00元/平米/月,商品房住宅,1.50,1134户,30%,1980年,150元/车位/月,上海丽景物业管理有限公司,德诚永信中海物业,116.48958165353201,39.93621535364929
天天朝阳,62265,朝阳 甘露园,甘露园西里8号,小高层|高层,2.00元/平米/月,商品房住宅,2.60,552户,32%,2005年,地下车位，332个，1:1.5 350元/月,北京三合兴房地产开发有限公司,红|物业管理公司,116.5161160711774,39.923828187237135
惠泽园,68954,朝阳 四惠,建国路,多层,2.79元/平米/月,商品房住宅,0.00,暂无数据,31%,2002年,暂无数据,上海卫客商务信息咨询有限公司,北京京煤集团有限责任公司物业管理分公司,116.50739370433661,39.9159567326602
甘露晴苑,54978,朝阳 甘露园,朝阳路,高层,1.63元/平米/月,商品房住宅,3.00,700户,30%,2001年,充足，150元/月,杭州华亭科技有限公司,北京恒安物业管理有限公司,116.5265100947417,39.9224577673902
沙窝苗圃宿舍,82166,海淀 马连洼,太平路,多层,0.00元/平米/月,商品房住宅,2.00,486户,35%,2000年,暂无数据,暂无数据,居民自理,116.28445224287029,39.90457468889828
三不老胡同小区,140911,西城 新街口,三不老胡同,多层,0.80元/平米/月,商品房住宅,0.00,暂无数据,30%,1990年,暂无数据,暂无数据,单位自管物业,116.4205602598423,39.92860144255692
合木山庄,71546,昌平 北七家,九台路8号,低层,2.00元/平米/月,商品房住宅,0.30,180户,暂无数据,1999年,暂无数据,北京九台房地产开发有限责任公司,合木山庄物业管理有限公司,116.39386297940796,40.08721707364368
胡桃园,53025,丰台 六里桥,丰台路30号,多层,1.20元/平米/月,商品房住宅,2.20,420户,40%,1992年,地面车位150元/月,上海华锦物业管理有限公司,北京农业生产资料有限公司物业管理,116.28833184470678,39.87827862182136
沿河路西区,22018,通州 土桥,盐河路,多层,3.18元/平米/月,商品房住宅,0.00,暂无数据,30%,暂无数据,暂无数据,暂未获知,-,116.76745458676405,39.839977694204364
双井北里小区,67538,朝阳 双井,百子湾南二路,小高层,1.50元/平米/月,商品房住宅,1.90,800户,30%,1984年,150元/车位/月,暂未获知,北京城建物业管理有限责任公司,116.47103083627601,39.90332177694961
朝阳无限芳菁苑,59413,朝阳 甘露园,朝阳路,多层,1.92元/平米/月,商品房住宅,0.00,暂无数据,暂无数据,2004年,暂无数据,上海净空环保工程有限公司,北京市京工物业管理有限责任公司,116.5181639382485,39.92420860474176
工人体育场东路小区,78400,朝阳 朝外大街,工人体育场东路,多层,0.80元/平米/月,商品房住宅,2.20,1017户,30%,1988年,充足,三河福成房地产开发有限公司,银茂泰德物业管理有限公司,116.45620331569778,39.9310913727036
海落新村,15789,昌平 北七家,七北路,多层,0.50元/平米/月,小产权房,1.03,80户,40%,2004年,充足,集体自建,海落物业,116.44163262066482,40.10844149017397
新华西街145号院,51266,通州 通州北苑,新华西街145号,高层,0.80元/平米/月,商品房住宅,3.10,暂无数据,35%,2000年,暂无数据,通州区住房和城乡建设委员会,北京瑞康物业服务有限公司,116.64444961328276,39.914242830563104
永利国际,81829,朝阳 三里屯,工人体育场体北路,高层,0.00元/平米/月,商品房住宅,4.32,暂无数据,30%,2010年,暂无数据,北京京茂房地产开发有限公司,达尔文国际物业有限公司,116.12384704208166,39.92689917474497
天之骄子,82380,朝阳 双井,东柏街9号,高层,3.00元/平米/月,商品房住宅,2.73,707户,33%,2005年,户均一个，600元/月,上海云都物业管理有限公司,香港中原物业,116.47206298930698,39.90150314893908
宝产胡同15号院,200000,西城 新街口,宝产胡同15号,低层,0.00元/平米/月,商品房住宅,0.00,暂无数据,暂无数据,1999年,暂无数据,暂无数据,暂无数据,116.37742075467554,39.94134821391118
博雅西园,83275,海淀 马连洼,农大南路,多层|小高层,1.99元/平米/月,商品房住宅,1.08,1200户,48%,2005年,停车位1：1，出租150元/月,北京世纪兴业房地产开发有限公司,瑞赢酒店物业管理公司,116.30105463547515,40.032275291531604
芍药居4号院,78510,朝阳 芍药居,文学馆路,多层|小高层|高层,0.60元/平米/月,商品房住宅,2.40,246户,10%,1998年,129,上海华滋物业管理有限公司,北京城乡物业管理公司,116.44039718109694,39.988696586969716
农丰里,92201,朝阳 东大桥,"朝阳北路,近工人体育场东路",多层,1.71元/平米/月,商品房住宅,2.00,暂无数据,40%,1990年,暂无数据,暂无数据,农业部内部管理部门,116.46000368698827,39.929899119615094
蓝调沙龙,50050,通州 九棵树,怡乐北街,多层|高层,2.50元/平米/月,商品房住宅,1.50,暂无数据,35%,2004年,暂无数据,北京天行雅坤房地产开发有限公司,北京燕科物业管理有限责任公司,116.65777606535383,39.89322257000318
中弘北京像素南区,45454,朝阳 常营,五里桥二街2号,高层,2.10元/平米/月,办公,0.00,暂无数据,40%,2009年,暂无数据,北京中弘投资有限公司,北京中弘文昌物业管理有限公司,116.62440778854129,39.93248845173747
新街口外大街10号院,134774,西城 德胜门,新街口外大街10号,多层,0.00元/平米/月,商品房住宅,2.00,360户,30%,1994年,充足,上海东信物业管理有限公司,上海东信物业管理有限公司,116.3790283622162,39.96794261302515
马家堡西里,58346,丰台 马家堡,马家堡中路,多层,1.80元/平米/月,商品房住宅,2.00,6520户,28%,1998年,150元/位・月,"阿克苏若贝尔,古驰贸易有限公司",北京城建物业管理有限责任公司,116.38072103928864,39.85883761510765
城南嘉园益嘉园,51262,丰台 马家堡,马家堡西路,多层,1.30元/平米/月,单位集体自建房,1.87,1267户,34%,2002年,地上车位150/元、地下车位350/元,上海寰舟水产有限公司,北京京丰物业管理有限责任公司,116.37904695714026,39.838821516855816
马家堡西里,58346,丰台 马家堡,马家堡中路,多层,1.80元/平米/月,商品房住宅,2.00,6520户,28%,1998年,150元/位・月,"阿克苏若贝尔,古驰贸易有限公司",北京城建物业管理有限责任公司,116.38072103928864,39.85883761510765
龙府花园,41107,顺义 胜利,中山北大街,多层,0.50元/平米/月,商品房住宅,1.50,1155户,35%,2000年,150元/车位/月,北京龙脉温泉房地产开发有限责任公司,北京昌振顺达物业管理有限公司,115.98980839491972,39.71489590254255
首座御园(三期),35076,大兴 枣园,科苑路30号,小高层,0.00元/平米/月,商品房住宅,0.00,暂无数据,暂无数据,暂无数据,暂无数据,暂无数据,暂无数据,116.37161967735321,39.760945204837654
上上城第三季,15700,北京周边 燕郊,燕顺路,高层,1.70元/平米/月,商品房住宅,2.90,暂无数据,35%,2011年,暂无数据,中外合资镇江豪斯嘉房地产有限公司,三河福成房地产开发有限公司,116.75607736781907,39.9378971677632
朝庭公寓,73454,朝阳 望京,阜荣街8号,高层,2.80元/平米/月,商品房住宅,4.17,暂无数据,30%,2008年,暂无数据,"上海佳科科技有限公司,创新实业有限公司",北京鼎铭物业管理有限公司,116.49021001823625,39.99411851147661
百子湾家园(B区),55222,朝阳 百子湾,百子湾路,高层,1.50元/平米/月,商品房住宅,2.54,暂无数据,30%,2003年,暂无数据,上海飞聘房地产有限公司、拓博国际货物运输代理有限公司、思喜爱思计算机系统有限公司,北京建工物业服务有限公司,116.51931457777623,39.906200970002104
金海国际,61384,朝阳 百子湾,广渠路21号,小高层|高层|超高层,2.00元/平米/月,商品房住宅,2.80,1534户,32%,2004年,地下车位380元/月,东方房产物业管理有限公司,北京盛世物业服务有限公司,116.49900622578996,39.90098671475169
安福苑,41980,昌平 昌平县城,北京市昌平区昌平镇财神庙胡同19号,多层,3.00元/平米/月,商品房住宅,2.98,60户,30%,1985年,150元/车位/月,"上海维塔斯电脑软件有限公司,上海鸿讯物流有限公司",福苑物业,116.24535205825967,40.23339086629223
西辛北区,38635,顺义 顺义城区,西外街,多层,0.55元/平米/月,商品房住宅,1.30,暂无数据,35%,1995年,小区有停车位500个,"湾流国际,思政餐饮有限公司",北京大龙地产物业管理中心,116.65043996357605,40.14659976495903
西辛北区,38635,顺义 顺义城区,西外街,多层,0.55元/平米/月,商品房住宅,1.30,暂无数据,35%,1995年,小区有停车位500个,"湾流国际,思政餐饮有限公司",北京大龙地产物业管理中心,116.65043996357605,40.14659976495903
龙门新区B9小区,23380,门头沟 龙泉,和平街,多层|小高层,1.70元/平米/月,商品房住宅,0.00,暂无数据,35%,2013年,暂无数据,上海蒂沙物业管理有限公司,北京奥和物业管理有限公司,116.0892253029978,39.95108579286173
首城国际,93740,朝阳 双井,广渠路36号,高层,2.83元/平米/月,商品房住宅,3.20,3820户,30%,2010年,A、B、D区车位和住宅比例0.8:1；C区车位和住宅比例2:1,上海维风企业管理有限公司,北京市嘉宝物业管理有限公司,116.47585868940884,39.89867212255458
天恒花园,40715,顺义 天竺,天柱路,多层,1.80元/平米/月,商品房住宅,1.19,249户,40%,2006年,地上150元/月,北京空港天恒房地产开发有限公司,北京天竺空港物业管理有限公司,116.56679541381162,40.07484355534475
山语间(保利西山林语),58911,海淀 马连洼,黑龙潭路,多层,0.40元/平米/月,商品房住宅,0.00,3315户,30%,0000-00-00年,地下停车场,暂无数据,暂无数据,116.2217337199608,40.044811468348676
天通苑西三区,36955,昌平 天通苑,立汤路,多层|高层,1.25元/平米/月,经济适用房,3.50,2600户,30%,2015年,地上150/月，地下车库180元,北京顺天通房地产开发有限公司,北京顺天通物业管理公司,116.41350901074175,40.10863904478827
于家坟11号院,30303,丰台 宋家庄,于家坟11号,多层,1.00元/平米/月,商品房住宅,1.00,600户,15%,2000年,50,城市开发,业主自管,116.44176718683022,39.85886281596879
三环新城7号院,56408,丰台 玉泉营,丰桥路7号,小高层|高层,1.20元/平米/月,商品房住宅,2.40,9000户,40%,2004年,停车位2：1，地面车位150元/车位/月，地下车位300/车位/月,上海鸿鼎物业管理有限公司,北京新城康景物业管理有限责任公司,116.31663080386541,39.85754405068532
天通苑西三区,36955,昌平 天通苑,立汤路,多层|高层,1.25元/平米/月,经济适用房,3.50,2600户,30%,2015年,地上150/月，地下车库180元,北京顺天通房地产开发有限公司,北京顺天通物业管理公司,116.41350901074175,40.10863904478827
珠江四季悦城,30000,通州 马驹桥,兴贸三街,小高层,3.60元/平米/月,商业,2.30,3344户,50%,2015年,共1914个机动车停车位，自行车位5888个,北京珠江投资开发有限公司,广东康景物业服务有限公司北京分公司,116.58922924646505,39.76628201171778
新安里,36108,大兴 黄村,团河路,多层|高层,0.80元/平米/月,商品房住宅,3.00,1356户,30%,2015年,免费停车，小区内有400个停车位,"东方海外货柜航运(中国)有限公司,乔达国际货运(上海)有限公司,上海市国际展览有限公司,大日精化(上海)贸易有限公司,上海凯璞庭资产管理有限公司,上海金丰投资有限公司,虹软（上海）多媒体科技有限公司",新安里小区物业管理公司,116.38709933000285,39.77233003582524
佟馨家园D区,32701,大兴 观音寺,永华路,高层,1.20元/平米/月,商品房住宅,0.00,暂无数据,暂无数据,2014年,暂无数据,无,无,116.3236033614033,39.731799193098745
新街口西里(一区),118124,西城 新街口,东教场胡同,多层,0.60元/平米/月,商品房住宅,1.30,688户,30%,1985年,150/车位/月，小区内停车不要钱,北京城市建设开发集团总公司,北京天恒瑞海物业管理有限责任公司,116.37344799855765,39.9511120657712
石门营新区四区,27436,门头沟 永定,紫金北路,多层,0.00元/平米/月,动迁配套房,0.00,暂无数据,12%,2001年,暂无数据,庆扬贸易有限公司,保利物业管理(北京)有限公司,116.1088301919392,39.893345189046855
中国铁建兴盛馨苑,26923,大兴 旧宫,京福路,多层,0.50元/平米/月,商品房住宅,2.20,暂无数据,30%,2016年,暂无数据,中国铁建房地产集团有限公司,北京中铁物业管理有限公司,116.44988795847097,39.77994607191896
御园B区,28150,大兴 庞各庄,民生路3号,高层,0.80元/平米/月,商品房住宅,0.00,暂无数据,40%,2007年,暂无数据,北京兴业万发房地产开发有限公司,北京高力国际物业管理有限公司,116.32721778345326,39.63416735416128
望京西园三区,67032,朝阳 望京,望京街,高层,1.70元/平米/月,商品房住宅,3.00,3400户,20%,2003年,地上3000个、没有地下车位。固定车位350/月，地上车位150/月,北京高校房地产开发总公司,北京望京实业总公司,116.48086503584649,40.00566806430206
千禧家园,21608,房山 阎村,阎东路,多层,0.62元/平米/月,商品房住宅,0.97,1260户,38%,2008年,100元/月，车位充足,北京市鸿翔房地产开发有限公司,北京鸿翔房地产开发有限公司,116.07742632961589,39.73509992030528
荣丰2008,141218,西城 广安门外,广安门外大街305号,小高层|高层|超高层,3.30元/平米/月,商品房住宅,3.20,9157户,36%,2003年,地下450-600元/车位/月，地上150元/车位/月,北京荣丰房地产开发有限公司,北京非常空间物业管理有限公司,116.3427521806373,39.9005649295787
珠江四季悦城,30000,通州 马驹桥,兴贸三街,小高层,3.60元/平米/月,商业,2.30,3344户,50%,2015年,共1914个机动车停车位，自行车位5888个,北京珠江投资开发有限公司,广东康景物业服务有限公司北京分公司,116.58922924646505,39.76628201171778
富力尚悦居,37320,通州 马驹桥,兴贸二街,小高层,3.30元/平米/月,商品房住宅,2.30,1466户,35%,2015年,1466个,北京极富房地产开发有限公司,北京恒富物业服务有限公司,116.5943912692476,39.77770478925122
高家园新区,0,门头沟 龙泉,育园路,高层,0.00元/平米/月,小产权房,0.00,暂无数据,暂无数据,暂无数据,暂无数据,暂无数据,暂无数据,116.10719024540019,39.93679230633527
翠微南里,93142,海淀 公主坟,玉渊潭南路,多层|高层,1.10元/平米/月,商品房住宅,3.00,500户,28%,2015年,地上车位30个，150元/月,大润发、倾城宝贝儿童摄影、筑博设计集团（上海）股份有限公司、上海久宙化工有限公司、上海韵华电子科技有限公司、上海真迪智能科技有限公司、上海炫创企业策划有限公司、河北建工集团,中房集团北京物业公司,116.30441501672688,39.91805505554101
双合小区C区(建工双合家园C区),44667,朝阳 垡头,双合中路3号,高层,1.83元/平米/月,经济适用房,2.57,暂无数据,30%,2004年,暂无数据,上海绿哲实业有限公司,北京建工物业服务有限公司,116.53383640498943,39.86430570643977
中间建筑,48192,海淀 香山,杏石口路50号,低层,0.00元/平米/月,办公,0.00,暂无数据,暂无数据,暂无数据,暂无数据,暂无数据,暂无数据,116.23950696396736,39.9599810803498
西山枫林(四区),48880,石景山 八大处,香山南路,小高层,1.60元/平米/月,商品房住宅,0.00,暂无数据,暂无数据,暂无数据,暂无数据,暂无数据,北京和泓物业公司,116.20287388560935,39.95247713684109
芳源里,48791,大兴 旧宫,南小街路,多层,1.25元/平米/月,商品房住宅,1.37,暂无数据,33%,2002年,暂无数据,北京军建利司达房地产开发有限公司,北京延龙物业管理有限责任公司,116.42370621556881,39.790700501706105
林校中里,37894,大兴 海子角,京开路,多层,1.20元/平米/月,商品房住宅,1.50,暂无数据,20%,2000年,不收费,无,京港物业管理有限责任开发公司,116.3502332689244,39.72692070844148
亚林西居住区,56686,丰台 右安门,西铁营中路9号,高层,0.00元/平米/月,商品房住宅,0.00,暂无数据,暂无数据,2018年,暂无数据,暂无数据,暂无数据,116.36087181124851,39.86197048142517
迎喜家园,43882,通州 土桥,玉桥中路,多层,2.00元/平米/月,商品房住宅,1.20,1200户,30%,2001年,200个,北京子轶房地产开发有限公司,北京求实信物业管理有限公司,116.69392405873646,39.88028245790498
冠芳园,39919,昌平 沙河,定泗路,多层,2.16元/平米/月,商品房住宅,0.00,暂无数据,20%,暂无数据,暂无数据,北京龙冠房地产开发有限责任公司,冠芳园物业,116.31225731365954,40.119425862711594
首开万科城市之光,50162,通州 台湖镇,站前街,高层,0.00元/平米/月,商品房住宅,2.20,暂无数据,30%,暂无数据,暂无数据,暂无数据,北京万科物业服务有限公司,116.44397629974036,39.903941282491566
惠泽园,68954,朝阳 四惠,建国路,多层,2.79元/平米/月,商品房住宅,0.00,暂无数据,31%,2002年,暂无数据,上海卫客商务信息咨询有限公司,北京京煤集团有限责任公司物业管理分公司,116.50739370433661,39.9159567326602
牡丹园东里,102689,海淀 牡丹园,北土城路,多层|高层,0.68元/平米/月,商品房住宅,1.33,1772户,30%,2015年,停车位是120元/月,上海显贵物业管理有限公司,北京海淀区志新物业管理公司,116.40450520478468,39.984943888839986
怡景园,78019,朝阳 朝外大街,朝外大街,高层,8.28元/平米/月,商品房住宅,2.50,540户,40%,2002年,地下车位1100/月,北京成荣房地产开发有限公司,北京大成房地产物业部,116.44836649842873,39.926947686207725
金桥国际公寓,85814,东城 广渠门,广渠路,高层|超高层,4.80元/平米/月,办公,6.00,暂无数据,37%,2003年,暂无数据,上海华锦物业管理有限公司,北京嘉安物业管理有限公司,116.5260274684285,39.89930211237226
富力尚悦居,37320,通州 马驹桥,兴贸二街,小高层,3.30元/平米/月,商品房住宅,2.30,1466户,35%,2015年,1466个,北京极富房地产开发有限公司,北京恒富物业服务有限公司,116.5943912692476,39.77770478925122
今典花园,93719,海淀 小西天,文慧园北路9号,高层,2.98元/平米/月,商品房住宅,4.00,2750户,40%,1998年,停车位基本十分的抢手，一般好的房子基本都带个地下停车位,北京安地房地产开发有限责任公司,北京今日今典物业管理公司,116.36635964943952,39.959313279476234
幸福家园(二期),109472,东城 广渠门,幸福大街,小高层|高层,2.64元/平米/月,商品房住宅,2.40,暂无数据,35%,2001年,暂无数据,上海新北方物业管理有限公司,北京金宏宇物业服务有限公司,116.43802601387281,39.89885409890755
定福庄北里1号院,53903,朝阳 定福庄,定福庄路,多层,0.00元/平米/月,商品房住宅,1.60,2482户,20%,2000年,150元/车位/月,北京市中建一局第五建筑公司,业主自管,116.5680502567785,39.92374435676602
沙河一通小区,43648,昌平 沙河,沙阳路,多层|高层,0.60元/平米/月,商品房住宅,1.50,374户,30%,2001年,暂无数据,北京顺天通房地产开发有限公司,北京百姓人家物业管理中心,116.2626210833835,40.12815209307252
团结湖北口,73018,朝阳 团结湖,东三环北路,高层,0.00元/平米/月,商品房住宅,0.00,暂无数据,暂无数据,暂无数据,暂无数据,暂无数据,暂无数据,116.4692028797836,39.938822569939134
东辰小区,51277,昌平 立水桥,立军路,多层,0.86元/平米/月,商品房住宅,1.80,2000户,20%,1992年,150元/车位/月,"阿克苏若贝尔,古驰贸易有限公司",北京东辰物业管理有限公司,116.41272541884538,40.05643555811663
国锐金,62055,大兴 亦庄,荣华南路1号,小高层|超高层,4.20元/平米/月,商品房住宅,4.83,1650户,30%,2014年,停车位配比1：1.6,北京国锐房地产开发有限公司,北京澳西物业管理有限公司,116.51449022803489,39.796677571072685
望花路西里社区,65461,朝阳 花家地,望花路,多层|高层,1.33元/平米/月,商品房住宅,3.20,1812户,30%,1981年,150元/车位/月,中建一局集团建设发展有限公司,北京金坤物业管理有限公司,116.4775510071591,39.99551208197034
魏公村南区,99630,海淀 魏公村,魏公村路,多层,0.00元/平米/月,商品房住宅,1.20,暂无数据,25%,1986年,暂无数据,上海风科盛投资有限公司,单位自管,116.32334500873864,39.9588579129371
宝盛里观林园,74374,海淀 清河,南马房东路,多层,1.50元/平米/月,商品房住宅,1.40,暂无数据,30%,2008年,暂无数据,"上海芝阁信息科技服务有限公司,上海窗钩厂",北京天鸿宝地物业管理经营有限公司,116.37940259629165,40.04536706043074
理想家园,35185,大兴 西红门,宏福路1号,多层,1.00元/平米/月,商品房住宅,0.00,暂无数据,暂无数据,2015年,暂无数据,北京鸿坤伟业房地产开发有限公司,无,116.34805182382398,39.78988459979116
筑华年,71713,朝阳 北苑,双营路2号,高层,2.98元/平米/月,商品房住宅,3.20,2516户,30%,2010年,共1228个，比例1:1，全部是地下停车位。,上海显贵物业管理有限公司,北京城承物业管理有限责任公司,116.4342740612493,40.04218133692054
时代龙和大道,43688,大兴 黄村,富强路2号,小高层,1.80元/平米/月,商品房住宅,2.00,1926户,35%,2007年,1305个,上海映巷集团,亿方物业管理有限责任公司,116.34964270132281,39.743080497765
太玉园西区,20000,通州 土桥,张采路,多层,0.00元/平米/月,小产权房,0.00,暂无数据,暂无数据,2005年,暂无数据,北京成龙房地产开发有限公司,暂无数据,116.70625482898028,39.857181676540336
信堡水岸公馆,91999,西城 天宁寺,广安门外大街,高层,2.30元/平米/月,商品房住宅,3.00,396户,20%,2007年,240个,北京市天叶房地产开发有限公司,北京天宝伟业物业管理有限责任公司,116.33637007931112,39.89844060364632
中关园,27757,海淀 北京大学,成府路,多层,2.90元/平米/月,商品房住宅,1.20,500户,20%,1983年,停车位380个，出租300-600元/月,"贝古设计事务所,中国建筑与室内设计师网",-,116.32499600443543,39.99786952701159
拾景名苑,37313,石景山 古城,体育场西街20号,高层,0.00元/平米/月,商品房住宅,0.00,暂无数据,暂无数据,暂无数据,暂无数据,暂无数据,暂无数据,116.20754821833052,39.907710776594165
酒仙桥一街坊,55007,朝阳 酒仙桥,酒仙桥路,多层,1.50元/平米/月,商品房住宅,1.30,1000户,28%,1957年,100,上海祥涛实业投资有限公司,北京建国物业管理有限公司,116.50009461274584,39.971342573353105
十里堡北里,61184,朝阳 十里堡,朝阳北路,多层|小高层|高层,0.00元/平米/月,商品房住宅,2.00,暂无数据,25%,1995年,地上车位150每月,保利(北京)房地产开发有限公司,北京东岳物业管理有限公司,116.51182001490648,39.92839810552587
甘露西园,58738,朝阳 十里堡,青年路,高层,1.62元/平米/月,商品房住宅,2.60,572户,30%,2005年,150元/车位/月,蔚蓝海岸婚纱摄影,北京和家安物业管理有限公司,116.51427777878177,39.92184693843129
甘露晴苑,54978,朝阳 甘露园,朝阳路,高层,1.63元/平米/月,商品房住宅,3.00,700户,30%,2001年,充足，150元/月,杭州华亭科技有限公司,北京恒安物业管理有限公司,116.5265100947417,39.9224577673902
金台西路2号院,60913,朝阳 呼家楼,金台西路2号,多层,0.50元/平米/月,商品房住宅,1.25,暂无数据,暂无数据,1958年,暂无数据,北京住总房地产开发有限公司,金台物业,116.47730073924401,39.924344862856984
北京方糖,37857,顺义 后沙峪,火沙路,多层|小高层|高层,4.83元/平米/月,办公,2.77,1298户,30%,2013年,580,竺坊建筑设计,北京商宝通商业管理有限公司,116.56362259875038,40.10870829913207
富泉花园,46598,昌平 昌平县城,白浮泉路21号,多层,2.00元/平米/月,商品房住宅,0.64,111户,30%,2001年,充足,东风集团,北京国华富泉物业管理公司,116.25440302525601,40.20819804781378
冠雅苑,39644,昌平 北七家,定泗路,多层,1.00元/平米/月,商品房住宅,1.00,2000户,40%,2015年,"每户一位,免费1:1",北京商建房地产开发公司,北京商建物业公司,116.41454547563914,40.120928784391054
燕丹村,26666,昌平 天通苑,大海路,多层,1.50元/平米/月,小产权房,0.00,暂无数据,30%,暂无数据,暂无数据,北京城建三房地产开发有限公司,北京燕城苑物业管理公司,116.44525324102278,40.10409293488529
都市芳园,42476,昌平 天通苑,太平庄北街,低层,2.00元/平米/月,商品房住宅,0.40,2000户,40%,1996年,1：3，全部地上，停车全部免费,北京都市芳园房地产开发有限公司,北京都市芳园房地产开发有限公司,116.39788936436479,40.08763059151733
K2海棠湾,58703,通州 梨园,云景东路,多层|高层,2.80元/平米/月,商品房住宅,2.90,2333户,30%,2008年,1205个,北京亚通房地产开发有限责任公司,浙江绿城物业管理有限公司,116.67156280916822,39.875657737733526
小街之春嘉园,40162,通州 土桥,砖厂北街9号,多层,1.50元/平米/月,商品房住宅,1.50,637户,40%,2006年,总数0个 地上车位0个,通州区住房和城乡建设委员会,北京澳通物业管理中心,116.69581211725733,39.88255677356782
天裕昕园(东区),26924,顺义 后沙峪,天北路,高层,3.00元/平米/月,商品房住宅,0.00,暂无数据,暂无数据,暂无数据,暂无数据,北京天竺房地产开发公司,空港物业,116.53443844934222,40.09058951988557
鑫苑小区,44858,通州 通州北苑,杨庄南街2号,多层,0.60元/平米/月,商品房住宅,1.20,暂无数据,41%,2001年,地上小车150元/月，大车210/月，小车1600/年，大车2300/年,通州区住房和城乡建设委员会,北京顺开物业管理有限公司,116.64614588357726,39.904339108067774
A派公寓,93784,朝阳 双井,百子湾南二路78号,小高层|高层,3.20元/平米/月,商品房住宅,2.70,492户,31%,2007年,地表车位290个，150元/月，地下车位600元/月,上海红坊文化发展有限公司,北京中原华夏物业管理有限公司,116.47484818554065,39.902159825597664
通大家园,29512,通州 九棵树,九棵树西路,高层,2.80元/平米/月,商品房住宅,2.59,750户,30%,2004年,3200,北京市烟草公司物资储运公司,北京通大家园物业管理有限公司,116.64719097220757,39.87809818231691
金泰先锋,76651,朝阳 百子湾,石门村路,小高层,2.60元/平米/月,商品房住宅,2.20,1262户,30%,2008年,150元/位・月，车位充足,北京金泰恒业有限责任公司,北京金泰物业管理有限公司第二分公司,116.5063854462322,39.90233293643656
北街家园(六区),50786,昌平 沙河,西三路,多层,2.20元/平米/月,商品房住宅,1.20,900户,30%,2009年,均为地上停车位，现在不收取任何费用，小区人员密度小，车位充足,"恒信服饰,上海申和实业有限公司",北京罗顿物业管理有限公司,116.41868723356585,39.772843173689594
清水园,56355,昌平 立水桥,立军路,小高层,0.65元/平米/月,商品房住宅,2.00,900户,41%,1998年,暂无停车费,北京大通房地产开发有限公司,北京兴中建物业管理有限公司,116.4069607228962,40.05478174313985
亿城西山华府珑园,97747,海淀 马连洼,马连洼南路,多层,0.00元/平米/月,商品房住宅,0.00,暂无数据,暂无数据,2008年,暂无数据,暂无数据,暂无数据,116.28960249785064,40.03839210526486
九台庄园,64310,昌平 北七家,太平庄北街,低层,2.00元/平米/月,商品房住宅,0.27,279户,85%,1998年,400,北京九台房地产开发有限责任公司,九台集团物业部,116.39632200091097,40.08230103329721
