小区名称,房价,区域商圈：,详细地址：,建筑类型：,物业费用：,产权类别：,容积率：,总户数：,绿化率：,建筑年代：,停车位：,开发商：,物业公司：,经度,纬度
杨闸新村,25556,朝阳 管庄,朝阳路,高层,0.00元/平米/月,动迁配套房,0.00,暂无数据,暂无数据,暂无数据,暂无数据,暂无数据,暂无数据,116.6149850128944,39.91731607752669
K2海棠湾,58703,通州 梨园,云景东路,多层|高层,2.80元/平米/月,商品房住宅,2.90,2333户,30%,2008年,1205个,北京亚通房地产开发有限责任公司,浙江绿城物业管理有限公司,116.67156280916822,39.875657737733526
北京新天地(西区),56087,朝阳 管庄,朝阳路7号,小高层|高层,1.98元/平米/月,商品房住宅,3.10,暂无数据,30%,2004年,暂无数据,杉岛咖啡、诺诗雅美容,安泰祥物业管理有限公司,116.61147200953651,39.92032409599439
天之骄子,82380,朝阳 双井,东柏街9号,高层,3.00元/平米/月,商品房住宅,2.73,707户,33%,2005年,户均一个，600元/月,上海云都物业管理有限公司,香港中原物业,116.47206298930698,39.90150314893908
清岚花园(东区),36637,顺义 中央别墅区,俗安路,多层,0.98元/平米/月,商品房住宅,1.10,暂无数据,30%,2006年,暂无数据,北京裕鑫房地产开发公司,北京裕鑫龙腾物业管理公司,116.55030171617346,40.126380663438795
华瀚国际,79703,朝阳 百子湾,世纪东方城102号,高层,4.68元/平米/月,商品房住宅,0.00,暂无数据,暂无数据,2010年,暂无数据,上海漕河泾物业管理有限公司,北京森茂物业管理有限公司,116.49941378699982,39.88481398834109
龙德紫金,30468,昌平 天通苑,立汤路186号,高层,0.00元/平米/月,办公,0.00,暂无数据,暂无数据,暂无数据,暂无数据,暂无数据,暂无数据,116.4185960250142,40.102616059282084
富莱茵花园,66447,东城 永定门,沙子口路,高层,1.29元/平米/月,商品房住宅,3.60,1284户,40%,1990年,小区停车位350个，出租150-300元/月,北京鸿运置业股份有限公司,北京富莱茵物业公司,116.4144194433761,39.866905706486264
海淀路社区,91665,海淀 北京大学,北四环西路,多层|小高层|高层,0.50元/平米/月,商品房住宅,3.00,1630户,20%,1987年,车位充足,"上海丝绸模特时装团,上海京络医疗有限公司",业主自管,116.31999962918893,39.99195834801464
双合小区C区(建工双合家园C区),44667,朝阳 垡头,双合中路3号,高层,1.83元/平米/月,经济适用房,2.57,暂无数据,30%,2004年,暂无数据,上海绿哲实业有限公司,北京建工物业服务有限公司,116.53383640498943,39.86430570643977
向阳楼,36508,门头沟 大峪,新桥大街88号,多层|高层,0.00元/平米/月,商品房住宅,1.20,625户,30%,1982年,260元/车位/月,上海卫客商务信息咨询有限公司,京煤集团有限责任公司绿海物业管理分公司,116.11281803958965,39.94246510210125
金顶街四区,47962,石景山 金顶街,金顶东街,多层|高层,0.60元/平米/月,商品房住宅,1.45,1300户,20%,1996年,600个车位紧缺，地上150元每月，地下280每月,"上海塘头建材有限公司,中企物业管理有限公司",北京首钢物业管理有限公司,116.17940969653597,39.93150598333659
西上园,55009,通州 新华大街,上香胡同,多层,0.55元/平米/月,商品房住宅,0.00,暂无数据,暂无数据,2015年,暂无数据,北京通州房地产开发有限责任公司,北京通州兴华物业管理公司,116.68493211041213,39.909358359822306
倚林佳园,123092,朝阳 奥林匹克公园,林萃路,多层,2.55元/平米/月,商品房住宅,0.70,620户,32%,2002年,车位1：1.2 ，出售地下车位20万元/位，地上150元/月，地下400元/月,"利浦,博纳影业,梨视频,暖流文化,滴滴打车,宝燕集团",北京金罗马物业管理有限公司,116.3790153367863,40.02077689766063
悠乐汇,38801,朝阳 望京,阜安东路,高层,3.90元/平米/月,办公,4.93,700户,50%,2004年,地下车位450/月，共有停车位1038个,富士康科技集团,第一太平戴维斯物业顾问(北京)有限公司,116.48381929317715,39.99475591340739
北京Golf公寓,82143,朝阳 朝阳公园,公园西路8号,高层,6.10元/平米/月,商品房住宅,3.60,196户,35%,2005年,地上、地下车位，地下315个车位,复宝软件科技发展公司,北京中保第一太平戴维斯物业管理有限公司,116.47798488872041,39.94391823242503
光辉南里小区,68106,朝阳 大望路,建国路,多层|小高层|超高层,1.50元/平米/月,商品房住宅,3.00,1500户,30%,2002年,150元/车位/月,印刷厂和社科院,街道办事处（委员会）,116.29376937778923,39.84644929341041
小关北里,76838,朝阳 小关,安苑路,多层,0.50元/平米/月,商品房住宅,2.03,3062户,30%,1992年,地上车位200-300。元没有，无地下车位。地上车位固定车位费用300，非固定车位200.,"上海永腾投资管理有限公司,上海电音马兰士贸易有限公司",北京恒安物业管理公司,116.42182803840855,39.98772004581759
未来明珠家园,64071,丰台 马家堡,红莲南路,高层,1.80元/平米/月,商品房住宅,2.50,378户,30%,2003年,6.5万每位,渡边物华园管理有限公司,百泽林物业管理有限公司,116.34252414398699,39.88291574645604
真武庙二条3号楼,144905,西城 木樨地,真武庙二条3号,多层,0.00元/平米/月,商品房住宅,0.00,暂无数据,暂无数据,暂无数据,暂无数据,暂无数据,暂无数据,116.3515110186818,39.910659102543256
金泽家园A区,28798,朝阳 东坝,康各庄路,多层,1.20元/平米/月,动迁配套房,0.00,5740户,30%,2012年,暂无数据,北京市朝阳城市建设综合开发公司,朝青物业管理公司,116.57044172570717,39.96096458836166
利景名门,50251,朝阳 花家地,花家地东路5号,高层,1.90元/平米/月,商品房住宅,3.64,135户,38%,2000年,1户1车位,上海仙乐斯物业管理有限公司,红城物业管理公司,116.4835711811953,39.98858291587088
法院宿舍,60774,朝阳 朝阳公园,六里屯北里16号,多层|小高层,0.70元/平米/月,商品房住宅,2.10,185户,32%,1986年,85,北京房地产开发商有限公司,业主自管,116.48179496171042,39.93851054930245
嘉园一里,64194,丰台 马家堡,角门北路,高层,0.00元/平米/月,商品房住宅,0.00,暂无数据,暂无数据,暂无数据,暂无数据,暂无数据,暂无数据,116.37438205662694,39.859914320507855
高鑫家园,28333,丰台 科技园区,高立庄南路9号,小高层,0.00元/平米/月,商品房住宅,0.00,暂无数据,26%,暂无数据,暂无数据,上海明通投资发展有限公司,北京超凡物业管理有限公司,116.31429485021727,39.79860183344429
城南嘉园益星园,75634,丰台 马家堡,马家堡西路,多层|小高层,1.95元/平米/月,商品房住宅,1.90,暂无数据,34%,2004年,暂无数据,上海寰舟水产有限公司,北京京丰物业管理有限责任公司,116.37544160797594,39.84191133013377
国锐金(商住楼),39814,大兴 亦庄,荣华南路1号,高层,0.00元/平米/月,办公,0.00,暂无数据,暂无数据,暂无数据,暂无数据,暂无数据,暂无数据,116.51449022803489,39.796677571072685
一栋洋房,63629,大兴 亦庄,天华北路,低层,2.85元/平米/月,商品房住宅,0.67,627户,43%,2001年,充足,北京懿麟房地产开发有限公司,北京首万物业服务有限公司,116.50536793558106,39.80778583688327
林肯公园C区,60537,大兴 亦庄,西环北路,高层,0.00元/平米/月,商品房住宅,2.80,暂无数据,35%,2008年,暂无数据,平高大厦物业管理有限公司,北京晟邦物业管理有限公司,116.49835693056734,39.81002003486646
蓟门里社区(东区),86057,海淀 蓟门桥,西土城路,高层,3.00元/平米/月,商品房住宅,2.50,2000户,30%,2002年,地上车位150元/月,北京市房地产开发经营总公司,北京务实物业管理有限公司,116.35896704424516,39.97684218689577
石门新居,49229,朝阳 百子湾,百子湾南三路35号,高层,0.00元/平米/月,动迁配套房,0.00,暂无数据,暂无数据,暂无数据,暂无数据,暂无数据,暂无数据,116.40229770882446,39.75674657105368
西四北八条,183008,西城 西四,西四北八条,低层,0.00元/平米/月,商品房住宅,0.00,暂无数据,暂无数据,暂无数据,暂无数据,暂无数据,暂无数据,116.37523932574462,39.93199089281458
向军南里,82863,朝阳 呼家楼,东三环北路,低层|高层,1.20元/平米/月,商品房住宅,1.72,1000户,30%,2002年,180,暂无数据,单位自管物业,116.46647022903241,39.92694920781211
广渠金茂府(西区),141201,朝阳 双井,广渠路25号,高层,6.50元/平米/月,商品房住宅,2.25,暂无数据,30%,2013年,暂无数据,上海南塘物业有限公司,北京金茂物业管理有限公司,116.49097330842807,39.89997223949495
中海北京世家(别墅),58799,大兴 瀛海镇,公园北环路,低层,0.00元/平米/月,商品房住宅,0.00,暂无数据,暂无数据,暂无数据,暂无数据,暂无数据,暂无数据,116.76917162947515,40.29645972053253
坝鑫家园,28163,朝阳 东坝,东坝路,多层,2.58元/平米/月,动迁配套房,2.00,暂无数据,33%,2013年,暂无数据,北京首都开发股份有限公司,北京嘉宝物业管理有限公司,116.54128120173392,39.97527005526267
百荣嘉园,48545,东城 永定门,西革新里116号,多层,1.88元/平米/月,商品房住宅,0.00,暂无数据,暂无数据,2015年,暂无数据,北京百荣房地产开发有限公司,北京中原华夏物业管理有限公司,116.39700129953764,39.873358134379785
安华里社区(一区),82339,朝阳 安贞,安定门外大街,多层,1.50元/平米/月,单位集体自建房,2.20,800户,30%,1988年,150,上海豪景物业管理有限公司,北京亿方物业管理有限责任公司.,116.41145018434341,39.971984543924464
东营前街小区,44795,通州 新华大街,玉带河东街,多层,0.00元/平米/月,商品房住宅,0.00,暂无数据,暂无数据,暂无数据,暂无数据,暂无数据,暂无数据,116.94612009676293,40.38760560969138
龙门新区B9小区,23380,门头沟 龙泉,和平街,多层|小高层,1.70元/平米/月,商品房住宅,0.00,暂无数据,35%,2013年,暂无数据,上海蒂沙物业管理有限公司,北京奥和物业管理有限公司,116.0892253029978,39.95108579286173
受水河胡同小区,171504,西城 西单,受水河胡同,多层,0.60元/平米/月,商品房住宅,1.60,42户,30%,2000年,胡同区，停车位比较紧缺,暂未获知,-,116.37394350387696,39.91953492425472
富力爱丁堡公馆,109788,朝阳 团结湖,白家庄路1号,高层,4.60元/平米/月,商品房住宅,0.00,648户,30%,2005年,1:2,北京富力地产开发有限公司,北京恒富物业服务有限公司,116.46619786280178,39.93504428298473
风荷曲苑,86910,丰台 六里桥,莲宝中路,高层,2.47元/平米/月,商品房住宅,2.47,1300户,31%,2006年,地下480元/月,华凯投资集团有限公司,北京瑞斯特物业管理有限公司,116.30730028419437,39.88956604048304
亚奥人家,77859,朝阳 健翔桥,安翔里1号,高层,1.60元/平米/月,商品房住宅,0.00,568户,40%,1999年,每户一位，出租150元/月,上海新北方物业管理有限公司,北京金第房地产物业公司,116.39025448617438,39.99734767644923
Dearvilla,82401,大兴 亦庄,文化园西路,低层,3.38元/平米/月,商品房住宅,0.43,177户,46%,2004年,1：2,名谷科技有限公司,北京首万物业服务有限公司,116.52297297188088,39.99818012740747
首创禧瑞都,147007,朝阳 CBD,朝阳路139号,高层,7.98元/平米/月,商品房住宅,3.50,654户,31%,2015年,共395个,"上海交通投资(集团)有限公司,上海佳绿绿化有限公司",北京仲量联行物业管理服务有限公司,116.47191036720083,39.92452469548403
远洋天地,74295,朝阳 四惠,八里庄西里1号,小高层|高层|超高层,2.30元/平米/月,商品房住宅,3.20,3300户,32%,2003年,1：0.7,"上海南河服饰有限公司,源捷贸易有限公司",远洋亿家物业服务股份有限公司,116.49889905794261,39.91905950766695
临泓路6号院,61453,丰台 大红门,临泓路6号,多层|高层,0.55元/平米/月,商品房住宅,2.26,500户,30%,2004年,150元/车位/月,"上海趣志网络科技有限公司,上海喜游娱乐有限公司",北京市建苑居物业管理中心,116.40424595381451,39.85116670409543
兴盛街187号院,43051,大兴 黄村,兴盛街187号,小高层|高层,1.80元/平米/月,商品房住宅,0.00,暂无数据,暂无数据,2014年,暂无数据,暂无数据,北京大兴城建开发管理二公司,116.32283072883418,39.761082760572485
首城国际,93740,朝阳 双井,广渠路36号,高层,2.83元/平米/月,商品房住宅,3.20,3820户,30%,2010年,A、B、D区车位和住宅比例0.8:1；C区车位和住宅比例2:1,上海维风企业管理有限公司,北京市嘉宝物业管理有限公司,116.47585868940884,39.89867212255458
高楼金第,26112,通州 梨园,群芳南街,高层,1.80元/平米/月,商品房住宅,2.50,800户,31%,2010年,车位充足1180个,暂无数据,高楼金第小区物业管理办公室,116.6939778672365,39.87015712436405
青春路六院,33811,怀柔 怀柔城区,青春路,多层,2.00元/平米/月,商品房住宅,2.00,428户,30%,2000年,地上停车位,无,北京万怡光华物业管理有限公司,116.63518637669442,40.32680083141157
红玺台,155788,朝阳 太阳宫,太阳宫二街3号,高层,5.97元/平米/月,商品房住宅,2.80,576户,35%,2012年,全部设置为地下车库670（1:1.17）个；第四代人车分流系统设置，专门设计了搬家通道与垃圾车清运路线，100%实现社区内人车分流，地上150元/月,上海旭华物业有限公司,北京懋源鸿玺物业管理有限公司,116.44573356497898,39.98544641664814
南湖中园小区,71314,朝阳 望京,湖光北街,多层,0.68元/平米/月,商品房住宅,1.50,3783户,30%,1999年,150/月,北京市新兴房地产开发有限公司,兴安物业,116.46663399012688,40.00434206058615
天通苑西二区,40781,昌平 天通苑,立汤路,多层,1.25元/平米/月,经济适用房,1.10,5760户,30%,2015年,地上停车位150元/月 地下停车180元/月,北京顺天通房地产开发有限公司,北京顺天通物业管理公司,116.41350901074175,40.10863904478827
广安康馨家园(南区),48838,丰台 卢沟桥,丰仪路1号,高层,2.17元/平米/月,商品房住宅,4.00,暂无数据,30%,1998年,一共2522个停车位,广安置业房地产开发有限公司,北京中商和旭物业管理有限公司,116.23557768583616,39.881679197518785
保利春天里,45796,大兴 生物医药基地,思邈路,高层,2.80元/平米/月,商品房住宅,2.80,2848户,30%,2013年,车位配比1:1,虎扑体育,保利物业管理(北京)有限公司,116.32841199079822,39.678398555249
首钢古北居民区,44911,石景山 古城,古城北路25号,多层,1.10元/平米/月,商品房住宅经济适用房,1.40,86户,20%,1983年,免费,上海冠图企业管理有限公司,北京首钢物业管理有限公司,116.19642504018377,39.922299094876536
珠江摩尔公元,40000,昌平 回龙观,北清路1号,多层,3.48元/平米/月,办公,1.17,966户,35%,2011年,266,北京中关村国际商城发展有限公司,北京康景物业管理有限公司,116.19290718597615,40.07463044287261
阜成路8号院,105882,海淀 甘家口,阜成路8号,小高层,0.00元/平米/月,商品房住宅,0.00,暂无数据,暂无数据,1990年,暂无数据,暂无数据,无,116.32557100979237,39.927806003989495
上地佳园,89819,海淀 上地,上地东二路,多层|小高层,2.48元/平米/月,商品房住宅,2.00,1130户,43%,2005年,底商300个车位，一月150元，地下1100个车位，每月450元，18万买断，车位和户数比例为1.3比1,"江苏木里文化发展中心,上海英冠文化投资中心",实创物业管理公司,117.19381445638724,40.68973143321307
团结湖南里,70004,朝阳 团结湖,朝阳北路,多层,1.50元/平米/月,商品房住宅,0.00,暂无数据,暂无数据,1977年,暂无数据,国家福利房,北京市朝阳区房屋管理公司,116.46973727634165,39.92929624198086
蓝龙小区,32000,门头沟 大峪,滨河路,多层,0.00元/平米/月,小产权房,0.00,暂无数据,30%,暂无数据,暂无数据,暂无数据,暂无数据,116.10743206924347,39.96010468500789
沿海赛洛城(南区),65840,朝阳 百子湾,广渠东路33号,多层|小高层|高层,1.50元/平米/月,商品房住宅,2.60,6524户,30%,2007年,车位充足,上海中中家缘实业有限公司,美佳物业管理有限公司,116.51164331821266,39.90282341475265
首开熙悦睿府书香,39314,房山 良乡,书院南街10号,多层,3.15元/平米/月,商品房住宅,2.80,1577户,30%,2015年,停车位为1:2,北京首都开发股份有限公司,北京方庄物业管理有限公司,116.176126389897,39.7308207633527
兴政西里,42506,大兴 黄村,兴华大街,多层,1.20元/平米/月,商品房住宅,1.53,1600户,32%,2015年,停车免费,无,业主自管,116.34258186191262,39.73439675696866
天际万象高尔夫花园,57338,朝阳 常营,朝阳北路,高层,3.15元/平米/月,商品房住宅,2.60,暂无数据,暂无数据,2008年,暂无数据,上海家能实业有限公司,鸿瑞侨物业,116.60392795003317,39.93724830502528
澳景花庭,76446,朝阳 奥林匹克公园,花虎沟8号,多层|小高层|高层,2.50元/平米/月,商品房住宅,2.30,553户,30%,2003年,分为上下机械车位和地上停车位。地上150/月，机械车位450/月，售价均在15-30万之间不等。,北京裕泰房地产开发有限公司,裕泰物业,116.3705129649649,40.021573801778096
裕馨家园,36111,通州 临河里,铜铝材厂路,多层,1.80元/平米/月,商品房住宅,0.00,暂无数据,暂无数据,暂无数据,暂无数据,暂无数据,北京永年嘉福高炮师物业管理处,116.69170326785469,39.88082431128916
云岗南区西里,42585,丰台 云岗,文西路,多层,3.00元/平米/月,商品房住宅,0.00,暂无数据,12%,2008年,充足,暂未获知,业主自管,116.16405891299816,39.81376106310474
小井润园(一区),57138,丰台 北大地,望园路,多层,1.00元/平米/月,商品房住宅,1.20,600户,30%,2000年,1：1,北京宏基源房地产开发有限公司,北京御井丽家物业管理有限公司,116.29307606559662,39.88045624734532
西单教育街小区,148550,西城 西单,西城教育街2号,多层,0.00元/平米/月,商品房住宅,2.00,3220户,26%,2000年,车位充足,暂无数据,暂无数据,116.37929201488338,39.911841869905125
新世界中心公寓,65473,东城 崇文门,崇文门外大街3号,高层,13.70元/平米/月,商品房住宅,4.30,3400户,30%,2000年,地上流动车位,上海友喜建设集团有限公司,北京祥和物业管理有限公司,116.4238959376925,39.90424785054574
金铸阳光苑,0,石景山 金顶街,铸造村中路2号,高层,0.00元/平米/月,经济适用房,0.00,暂无数据,暂无数据,暂无数据,暂无数据,暂无数据,暂无数据,116.52130297702256,39.85729681396818
尚城,30891,昌平 龙泽,发展路8号,高层,2.80元/平米/月,小产权房,3.00,暂无数据,30%,2010年,暂无数据,北京中天华瑞科技发展有限公司,北京中视盛元物业管理有限公司,116.30066018952573,40.11061283471207
顺源里小区,82815,朝阳 三元桥,新源街,多层,0.80元/平米/月,商品房住宅,2.00,1092户,30%,1983年,350,首创股份有限公司,北京朝阳区物业管理有限公司左家庄分公司,116.46357517003484,39.95482764411499
阳光南里,66887,海淀 清河,清河二街72号,多层,0.80元/平米/月,商品房住宅,1.35,1027户,35%,1995年,150元/车位/月,阿耐思特岩田产业机械(上海)有限公司,康苑物业管理有限公司,116.34530157167463,40.039059679464366
甜水园东里,66734,朝阳 甜水园,甜水园东街,多层,0.00元/平米/月,商品房住宅单位集体自建房,1.50,2646户,28%,1984年,甜水园东里内都是地上的车位，车位租金一年1800元，基本上都被个人承租，车位紧缺，可提前和物业打招呼申请，以免影响停车！,北京市崇文区城市建设开发公司,三元物业,116.48934602799675,39.931691053087214
华普花园,65551,东城 东直门,东直门南大街9号,高层,5.50元/平米/月,商品房住宅,3.80,550户,30%,1999年,150元/车位/月,华普产业集团,华普物业,116.4391013753988,39.94216548302035
农丰里,92201,朝阳 东大桥,"朝阳北路,近工人体育场东路",多层,1.71元/平米/月,商品房住宅,2.00,暂无数据,40%,1990年,暂无数据,暂无数据,农业部内部管理部门,116.46000368698827,39.929899119615094
西长安壹号,17878,门头沟 永定,石龙东路,高层,0.00元/平米/月,经济适用房,0.00,暂无数据,暂无数据,暂无数据,暂无数据,暂无数据,暂无数据,116.13176303330344,39.91461804434068
泰禾中央广场,53000,大兴 黄村,新源大街,小高层|高层,4.18元/平米/月,商品房住宅,3.00,暂无数据,30%,暂无数据,暂无数据,福州泰禾物业管理有限公司北京分公司,泰禾地产,116.3262954033556,39.72094204225839
大山子北里,53142,朝阳 大山子,酒仙侨路,多层,0.00元/平米/月,商品房住宅,0.00,暂无数据,暂无数据,1957年,暂无数据,暂无数据,无,116.49385902504832,39.99009310205211
沙河一通小区,43648,昌平 沙河,沙阳路,多层|高层,0.60元/平米/月,商品房住宅,1.50,374户,30%,2001年,暂无数据,北京顺天通房地产开发有限公司,北京百姓人家物业管理中心,116.2626210833835,40.12815209307252
瑞丽江畔(北区),60289,丰台 马家堡,马家堡西路28号,高层,2.50元/平米/月,商品房住宅,2.64,暂无数据,30%,2005年,暂无数据,上海申华物业管理有限公司,北京市洋桥瑞丽物业管理有限责任公司,116.38048622222833,39.85023416062316
华城滨河世家,103012,东城 广渠门,夕照寺大街16号,多层,2.80元/平米/月,商品房住宅,0.00,暂无数据,30%,暂无数据,暂无数据,上海金运物业管理有限公司维也纳国际酒店,北京中海物业管理有限公司,116.44876956811105,39.89355389002581
石门营新区三区,27874,门头沟 永定,紫金北路,多层,0.80元/平米/月,动迁配套房,0.00,暂无数据,35%,2001年,暂无数据,庆扬贸易有限公司,保利物业管理(北京)有限公司,116.11093608954626,39.89532131805777
中关园,27757,海淀 北京大学,成府路,多层,2.90元/平米/月,商品房住宅,1.20,500户,20%,1983年,停车位380个，出租300-600元/月,"贝古设计事务所,中国建筑与室内设计师网",-,116.32499600443543,39.99786952701159
富力又一城(A区),51884,朝阳 豆各庄,大鲁店北路,小高层|高层,2.20元/平米/月,商品房住宅,2.40,6400户,35%,2004年,1：0.8；售价：15万/个；租价：350元/位・月,北京华恩房地产开发有限公司,北京恒富物业服务有限公司,116.57255364196112,39.85307052658762
金隅花石匠二期东区,57743,通州 土桥,土桥中街,小高层|高层,2.80元/平米/月,商品房住宅,0.00,暂无数据,暂无数据,2010年,暂无数据,北京金隅嘉业房地产开发有限公司,北京金隅大成物业管理有限公司,116.70643520872667,39.879870026309206
合木山庄,71546,昌平 北七家,九台路8号,低层,2.00元/平米/月,商品房住宅,0.30,180户,暂无数据,1999年,暂无数据,北京九台房地产开发有限责任公司,合木山庄物业管理有限公司,116.39386297940796,40.08721707364368
智学苑,54974,海淀 西二旗,西二旗西路29号,多层|高层,1.50元/平米/月,商品房住宅,2.10,2714户,29%,1999年,地上150元/月，地下300元/月,上海台鼎物业管理有限公司,北京东居物业管理有限公司,116.31795032482903,40.0567599377504
拾景名苑,37313,石景山 古城,体育场西街20号,高层,0.00元/平米/月,商品房住宅,0.00,暂无数据,暂无数据,暂无数据,暂无数据,暂无数据,暂无数据,116.20754821833052,39.907710776594165
樱花园小区,81836,朝阳 惠新西街,北京市朝阳区建安东路,多层,0.70元/平米/月,商品房住宅,1.30,2768户,30%,1986年,充足 免费,"上海趣志网络科技有限公司,上海喜游娱乐有限公司",北京中日樱花物业管理公司,116.42726997318799,39.981491051654565
世安家园,63453,朝阳 望京,望京西路,多层|高层,1.56元/平米/月,商品房住宅,2.12,1580户,30%,1998年,1：1配置,杭州银行、复星集团,北京市望京实业总公司,116.46273920692727,40.00696530383434
工体3号,86008,东城 东直门外,工体西路3号,高层,6.95元/平米/月,商品房住宅,3.50,暂无数据,40%,2006年,暂无数据,北京世纪中基房地产开发有限公司,戴德梁行顾问,116.45357604157273,39.937016087694744
首座御园(二期2号院),34103,大兴 枣园,清泰路2号,高层,0.00元/平米/月,商品房住宅,0.00,暂无数据,暂无数据,暂无数据,暂无数据,暂无数据,暂无数据,116.37290452372412,39.75531946493103
知春路52号院,97364,海淀 知春路,知春路52号,高层,2.72元/平米/月,商品房住宅,4.00,853户,30%,1985年,地上停车位，先到先得,上海巨东商务有限公司,北京神舟天辰物业服务有限公司,116.34429358306187,39.98098033968549
加华印象街,52480,通州 武夷花园,通胡大街23号,小高层,1.70元/平米/月,商品房住宅,1.90,2000户,40%,2003年,停车位2：1,北京盛业房地产开发有限公司,北京万方缘物业管理中心,116.69448864374948,39.92166647619191
合立方,50002,昌平 立水桥,中滩村6号,小高层|高层,1.20元/平米/月,商品房住宅,3.00,暂无数据,30%,2010年,暂无数据,海琪物业管理有限公司,北京城科第一太平物业管理服务有限公司,116.41664221052999,40.06336868719719
康营家园(23期),32661,朝阳 孙河,香江北路,多层,1.20元/平米/月,动迁配套房,0.00,暂无数据,30%,2010年,暂无数据,"上海芝阁信息科技服务有限公司,上海窗钩厂",房修一公司,116.5481155998844,40.04059615227146
都市心海岸雅园,60186,朝阳 花家地,阜通西大街18号,高层,2.59元/平米/月,商品房住宅,3.25,533户,37%,2002年,300多个,上海河岸商业开发有限公司,中时杰肯道夫物业管理公司,116.47441798703194,39.99478880249338
国锐金,62055,大兴 亦庄,荣华南路1号,小高层|超高层,4.20元/平米/月,商品房住宅,4.83,1650户,30%,2014年,停车位配比1：1.6,北京国锐房地产开发有限公司,北京澳西物业管理有限公司,116.51449022803489,39.796677571072685
锦上国际公寓,75886,西城 长椿街,核桃园西街37号,高层,4.80元/平米/月,商品房住宅,4.50,暂无数据,30%,2001年,暂无数据,北京市天工房地产开发有限公司,暂无数据,116.35818390150158,39.89903199243044
东关一区(东区),30219,怀柔 怀柔城区,南大街,多层,0.88元/平米/月,商品房住宅,0.00,暂无数据,暂无数据,暂无数据,暂无数据,无,居民自管委,116.6824040092154,39.914038067008235
金泉家园,87619,朝阳 亚运村,大屯路,高层,2.88元/平米/月,商品房住宅,3.50,2800户,30%,2008年,地下车位2200个、租价450元/月，车位管理费50元；出售13万到18万 目前地下2层除了3、4号楼比较紧张,北京高德房地产有限责任公司,长城物业集团股份有限公司,116.41903484725582,40.01088153430118
伯宁花园,66476,朝阳 朝阳公园,朝阳公园路,高层,6.44元/平米/月,商品房住宅,2.40,192户,35%,1996年,每户一位,上海义签商业有限公司,北京大成苑物业管理有限责任公司,116.47943277754139,39.95131139385562
角门西里晨光小区,64918,丰台 马家堡,角门北路,多层,0.80元/平米/月,商品房住宅,1.00,暂无数据,30%,2015年,150元/车位/月,隆江物业管理有限公司,久筑物业,116.38158493969759,39.8550442945013
西便门外大街西里,144478,西城 西便门,西便门外东大街,多层,0.90元/平米/月,商品房住宅,1.80,892户,20%,1989年,地面车位150/月,一建集团有限公司,业主自管,116.35012268751612,39.8994999380472
北纬40度(东区),79636,朝阳 望京,广达路2号,高层,2.36元/平米/月,商品房住宅,2.50,2100户,30%,2008年,地下450元/车位/月、地上：200元/车位/月,"上海达同科技有限公司,上海驰阳信息科技有限公司",达文（中澳）物业管理有限公司,116.47148690598343,40.02949274240213
蝶泉花园,36000,朝阳 常营,东苇路126号,低层,6.80元/平米/月,办公,0.60,暂无数据,80%,2011年,暂无数据,北京常赢绿洲假日运动中心有限公司,北京德康物业管理有限责任公司,116.60330946668955,39.93932183641768
甘露晴苑,54978,朝阳 甘露园,朝阳路,高层,1.63元/平米/月,商品房住宅,3.00,700户,30%,2001年,充足，150元/月,杭州华亭科技有限公司,北京恒安物业管理有限公司,116.5265100947417,39.9224577673902
通大家园,29512,通州 九棵树,九棵树西路,高层,2.80元/平米/月,商品房住宅,2.59,750户,30%,2004年,3200,北京市烟草公司物资储运公司,北京通大家园物业管理有限公司,116.64719097220757,39.87809818231691
朝阳园,60372,朝阳 甘露园,甘露园南里25号,高层,4.95元/平米/月,商品房住宅,3.00,744户,35%,2000年,480元/车位/月季付费,上海阿斯牛牛春天实业有限公司,国贸物业酒店管理有限公司,116.52358018149036,39.92442668676132
金台西路2号院,60913,朝阳 呼家楼,金台西路2号,多层,0.50元/平米/月,商品房住宅,1.25,暂无数据,暂无数据,1958年,暂无数据,北京住总房地产开发有限公司,金台物业,116.47730073924401,39.924344862856984
馨然嘉园二区(长阳国际城二区),41802,房山 长阳,长政南街,多层,1.82元/平米/月,商品房住宅,2.02,暂无数据,30%,2012年,暂无数据,上海中观信息科技有限公司,中铁建（北京）物业管理有限公司,116.22385327181158,39.76429534313041
甘露园西里,55901,朝阳 甘露园,朝阳路,高层,1.00元/平米/月,商品房住宅,3.60,266户,30%,1975年,总数0个 地上车位0个,上海阿斯牛牛春天实业有限公司,北京国贸酒店物业管理有限公司,116.51645527133796,39.922587043022055
富力阳光美园,57200,朝阳 常营,常营中路2号,多层|高层,1.80元/平米/月,商品房住宅其他,2.49,8000户,41%,2004年,车位充足,世邦魏理仕,天力管理物业公司,116.61305697977832,39.933898088559005
玉带河西街2、4号楼,53713,通州 新华大街,玉带河西街2、4号,多层,0.00元/平米/月,商品房住宅,0.00,暂无数据,暂无数据,暂无数据,暂无数据,暂无数据,暂无数据,116.6583673300405,39.906979365519234
三源里南小街小区,75179,朝阳 三元桥,顺源街,高层,0.80元/平米/月,商品房住宅,2.80,1342户,33%,2015年,地上车位150元/月,北京军建利司达房地产开发有限公司,北京延龙物业管理有限责任公司,116.4639950380302,39.95994050091909
厂坡小区,49548,朝阳 大望路,庆丰闸后街,多层,2.50元/平米/月,商品房住宅,2.00,暂无数据,40%,1996年,暂无数据,上海豪景物业管理有限公司,业主自管,116.47158688738669,39.907488351527874
希格玛公寓,72889,海淀 知春路,知春路49号,高层,1.98元/平米/月,商品房住宅,3.00,308户,30%,1997年,地下每位每户600元,上海三图广告有限公司,北京希格玛物业管理有限公司,116.3436344963092,39.98362245511568
苏荷时代,52553,通州 果园,通朝大街206号,高层,1.80元/平米/月,商品房住宅,5.56,1071户,20%,2005年,地上临时车位225个1元/小时，地下139个车位,通州区住房和城乡建设委员会,北京顺开物业管理有限公司,116.65146798440168,39.89780734766176
风度柏林,78218,朝阳 大望路,西大望路59号,小高层|高层,2.66元/平米/月,商品房住宅,2.80,1300户,30%,2003年,地上200/月，地下500/月，车位比较紧缺,北京融利达房地产开发有限公司,北京同舟物业管理有限公司,116.48234104162995,39.89530927794706
保利东郡,110811,朝阳 石佛营,石佛营路,小高层|高层,7.90元/平米/月,商品房住宅,2.80,336户,32%,2013年,796个,庆扬贸易有限公司,保利物业管理(北京)有限公司,116.50669266671663,39.936083683549
甘露家园,58930,朝阳 甘露园,朝阳路,高层,0.55元/平米/月,商品房住宅,2.50,3500户,30%,1975年,500个,北京通衢房地产开发有限责任公司,宏运承物业管理中心,116.52112960405913,39.923959396933526
映翠居小区,41426,通州 梨园,景中街,多层,0.00元/平米/月,商品房住宅,0.00,暂无数据,25%,2002年,充足,通州区住房和城乡建设委员会,北京通州兴华物业管理公司,116.6649969145347,39.88596765465544
定海园一里,32567,通州 次渠,科创九街,多层,0.00元/平米/月,商品房住宅,2.00,暂无数据,25%,2009年,暂无数据,北京星湖开发有限公司,星湖物业,116.56957728631492,39.80494460620551
呼家楼西里,74959,朝阳 呼家楼,朝阳路,多层,0.50元/平米/月,商品房住宅,2.00,460户,20%,2015年,150元/车位/月,"阿克苏若贝尔,古驰贸易有限公司",业主自管,116.47372539348375,39.92552829113273
月亮河七星公馆,62058,通州 武夷花园,月亮河河滨路1号,多层|小高层,2.80元/平米/月,商品房住宅,0.90,50户,80%,2013年,102,北京凯瑞房地产开发有限公司,北京月亮河物业管理有限公司,116.68297596033361,39.92720808755127
金台北街小区,70114,朝阳 CBD,金台北街1-5号,多层,0.50元/平米/月,商品房住宅,1.33,暂无数据,40%,1991年,暂无数据,北京住总房地产开发有限公司,街道委员会物业,116.4814149784797,39.9279970318218
城南嘉园益嘉园,51262,丰台 马家堡,马家堡西路,多层,1.30元/平米/月,单位集体自建房,1.87,1267户,34%,2002年,地上车位150/元、地下车位350/元,上海寰舟水产有限公司,北京京丰物业管理有限责任公司,116.37904695714026,39.838821516855816
林肯公园C区(商住楼),38000,大兴 亦庄,西环北路,高层,0.00元/平米/月,办公,0.00,暂无数据,35%,暂无数据,暂无数据,北京和裕房地产开发有限公司,暂无数据,116.49835693056734,39.81002003486646
新文化街80号院,196074,西城 金融街,新文化街80号,多层,0.00元/平米/月,商品房住宅,0.00,暂无数据,暂无数据,暂无数据,暂无数据,暂无数据,业主自管,116.37193794699539,39.90966746315598
林肯公园(B区),36305,大兴 亦庄,荣华北路,高层,4.50元/平米/月,办公,3.00,暂无数据,30%,2008年,暂无数据,平高大厦物业管理有限公司,北京晟邦物业管理有限公司,116.50240640197576,39.81260250110902
圣馨家园,80382,朝阳 太阳宫,太阳宫南街,多层|高层,2.00元/平米/月,商品房住宅,2.00,1800户,20%,2010年,500,冠城开发,冠城物业管理公司,116.44717992668059,39.979887306390296
永旺家园(五区),39677,海淀 西北旺,永丰路,多层,0.80元/平米/月,商品房住宅,0.00,暂无数据,30%,2014年,暂无数据,暂无数据,千秋物业管理公司,116.25780383025568,40.06988472050758
华威北里,64614,朝阳 潘家园,劲松南路,多层|小高层,0.50元/平米/月,商品房住宅,2.20,2400户,30%,1996年,租价200元/月、323个,无,北京双吉安物业管理有限公司,116.46481492146918,39.88430725481634
帽儿胡同5号四合院,145123,东城 交道口,帽儿胡同5号,低层,0.00元/平米/月,商品房住宅,0.00,暂无数据,30%,2006年,暂无数据,暂无数据,暂无数据,116.40818502347575,39.942080084771035
万科公园五号,98042,朝阳 团结湖,甜水园街,高层,6.30元/平米/月,商品房住宅,2.50,869户,31%,2004年,20-25万元/个，50年产权。月租金1000-1200元,上海新中物业管理有限公司,北京万科物业服务有限公司,116.4842960239113,39.93090809947354
顶秀金石家园,46522,丰台 宋家庄,金桥东街6号,高层,2.30元/平米/月,商品房住宅,0.00,1808户,暂无数据,2013年,暂无数据,锦能物业管理有限公司,北京鸿路泽物业管理有限公司,116.43755952382148,39.84283269991148
金顶阳光槐满园,44473,石景山 金顶街,金顶北路20号,高层,1.80元/平米/月,商品房住宅,0.00,暂无数据,30%,2016年,暂无数据,黎安物业管理有限公司,北京华清物业管理有限责任公司,116.17052419741458,39.93527381000051
莲怡园一区,68847,丰台 六里桥,莲宝中路,多层|高层,2.20元/平米/月,商品房住宅,2.00,1200户,25%,1996年,500,北京红都风尚服装服饰有限公司,北京广宇物业管理有限公司,116.30745353511438,39.891837000963065
西苑操场1号院,80400,海淀 西苑,西苑操场1号院,多层,1.50元/平米/月,商品房住宅其他,0.00,暂无数据,暂无数据,1980年,暂无数据,无,无,116.29908159725304,40.00224108532567
叠翠庭院,0,石景山 苹果园,八大处路,多层,0.00元/平米/月,小产权房,0.00,暂无数据,暂无数据,暂无数据,暂无数据,暂无数据,暂无数据,116.20680752950533,39.95020693833603
荣丰2008,141218,西城 广安门外,广安门外大街305号,小高层|高层|超高层,3.30元/平米/月,商品房住宅,3.20,9157户,36%,2003年,地下450-600元/车位/月，地上150元/车位/月,北京荣丰房地产开发有限公司,北京非常空间物业管理有限公司,116.3427521806373,39.9005649295787
美然动力街区A2区,54592,朝阳 定福庄,朝阳北路,多层|小高层|高层,1.50元/平米/月,商品房住宅,1.60,1800户,30%,2003年,地上150元/月、地下300元/月,上海欣广物业管理有限公司,北京昆和物业管理有限公司,116.56489711460793,39.92903951421424
鸿博家园(二期F区),43774,朝阳 小红门,红坊路,高层,0.00元/平米/月,商品房住宅,0.00,暂无数据,暂无数据,暂无数据,暂无数据,暂无数据,暂无数据,116.47049230212279,39.83158552709728
古城南路小区(西区),51156,石景山 古城,古城路30号,多层|高层,0.00元/平米/月,商品房住宅单位集体自建房,1.70,2389户,20%,1958年,没有停车费,"上海佳佳航空服务有限公司,同润投资集团",北京首欣物业管理有限责任公司,116.19637922660276,39.915399871407026
福星家园(A区),19841,房山 房山城关,房山北大街,多层,0.60元/平米/月,商品房住宅,0.00,暂无数据,30%,2000年,车位充足，免费停车,北京日月星房地产开发有限责任公司,业主自管,115.99043523250458,39.70977392206487
石门营新区四区,27436,门头沟 永定,紫金北路,多层,0.00元/平米/月,动迁配套房,0.00,暂无数据,12%,2001年,暂无数据,庆扬贸易有限公司,保利物业管理(北京)有限公司,116.1088301919392,39.893345189046855
朝阳旺角,50127,朝阳 双桥,双柳北街1号,小高层|高层,2.00元/平米/月,商品房住宅,2.78,1200户,30%,2004年,地下400，地上120，1:0.8、150元/月,上海中原顾问有限公司,北京中北物业管理有限责任公司旺角福邸家园分公司,116.59474142873539,39.91082582715295
圣世一品,86199,朝阳 东大桥,向军北里28号,高层,5.98元/平米/月,商品房住宅,3.90,530户,30%,2010年,336,北京市双建房地产开发有限公司,北京金地格林物业管理公司,116.46548712348228,39.93133598982528
五路居137号院,74224,海淀 五路居,西四环北路137号,多层,0.30元/平米/月,商品房住宅,2.10,6088户,30%,1990年,6100,暂无数据,北京海房物业管理有限公司,117.10255557896755,40.15399877042522
定福庄北里1号院,53903,朝阳 定福庄,定福庄路,多层,0.00元/平米/月,商品房住宅,1.60,2482户,20%,2000年,150元/车位/月,北京市中建一局第五建筑公司,业主自管,116.5680502567785,39.92374435676602
东大桥路小区,84785,朝阳 东大桥,东大桥路,多层,2.00元/平米/月,商品房住宅,0.90,2000户,15%,2015年,800,"阿克苏若贝尔,古驰贸易有限公司",业主自管,116.45636572933398,39.919857469654
烟树园小区,96307,海淀 世纪城,蓝靛厂西路,多层,1.20元/平米/月,商品房住宅,2.20,11000户,35%,2004年,300元/车位/月,北京金源鸿大房地产开发有限公司,北京世纪颐和物业管理有限责任公司,116.28526062799871,39.96868311373056
京旺家园四区,34146,朝阳 望京,金港南路,多层,1.20元/平米/月,动迁配套房,0.00,暂无数据,30%,2000年,暂无数据,"上海竞翔汽车零件有限公司,上海佳化有限公司",北京华特物业管理有限公司,116.57926813878365,40.01856829158413
保利罗兰香谷,47709,昌平 沙河,沙阳路34号,小高层,2.78元/平米/月,商品房住宅,2.30,1244户,30%,2012年,约1000个车位。,庆扬贸易有限公司,保利物业管理(北京)有限公司,116.2740154599637,40.123461647519726
碧水云天颐园(东区),148341,海淀 万柳,万泉庄路,多层,2.20元/平米/月,商品房住宅,0.00,暂无数据,30%,2004年,暂无数据,上海允智物业管理有限公司,北京迪嘉贝施物业管理有限公司,116.3023198089554,39.97296518232787
葛布店东里,49811,通州 梨园,运河大街100号,多层,1.20元/平米/月,商品房住宅,0.80,暂无数据,30%,1980年,充足,通州区住房和城乡建设委员会,北京通运达物业管理有限公司,116.67285331486386,39.896034725409734
顶秀欣园西苑,53721,丰台 宋家庄,宋庄路,高层,1.10元/平米/月,商品房住宅,3.50,1031户,37%,2003年,停车位360个，150元/车位/月,锦能物业管理有限公司,北京鸿路泽物业管理有限公司,116.43377720847172,39.84509005513378
新街口外大街10号院,134774,西城 德胜门,新街口外大街10号,多层,0.00元/平米/月,商品房住宅,2.00,360户,30%,1994年,充足,上海东信物业管理有限公司,上海东信物业管理有限公司,116.3790283622162,39.96794261302515
阜光里小区,94092,海淀 甘家口,阜成路北二街,多层|小高层,1.80元/平米/月,商品房住宅,1.50,550户,30%,1998年,400元/辆/月,"阿克苏若贝尔,古驰贸易有限公司",业主自管,116.32858428579503,39.93300443905699
西山国际城,68421,海淀 田村,阜石路甲69号,多层,4.20元/平米/月,商业,1.38,1468户,33%,2011年,地上停车位数量：500个、150元/月，地下停车位数量：1000个，300/月 目前正在建设中,上海安亭经济发展中心,北京昌泽物业管理有限公司,116.23583325375375,39.933046002802584
新纪家园,81812,朝阳 太阳宫,太阳宫中路,多层|高层|超高层,1.01元/平米/月,商品房住宅,2.80,2000户,35%,2002年,地下350元/月、地上180元/月,上海锦都置业有限公司,北京新纪家园物业管理有限公司,116.4566752854127,39.97912716238799
中海安德鲁斯庄园(东区),54811,朝阳 百子湾,高碑店路181号,低层,0.00元/平米/月,商品房住宅,0.80,暂无数据,36%,2006年,暂无数据,上海尊木汇文化投资有限公司,北京中海物业管理有限公司,116.53116241897789,39.89053486003122
荣京丽都,30107,大兴 亦庄,荣京东街3号,高层|超高层,2.68元/平米/月,办公,4.85,330户,30%,2008年,"336，地下420元/月,地上小区内按时收费，小区旁边有个停车场，那边比较合适一次两元",上海诚信实业科技有限公司,安瑞态富物业管理公司,116.51776284483829,39.80038426912399
香江花园,105379,朝阳 来广营,香江北路1号,低层,0.00元/平米/月,商品房住宅,0.00,暂无数据,暂无数据,暂无数据,暂无数据,暂无数据,暂无数据,116.52578498253405,40.038409091615996
盛今大厦,60776,丰台 六里桥,莲宝路1号,高层,2.00元/平米/月,商品房住宅,1.33,暂无数据,35%,2001年,暂无数据,上海锦森物业管理有限公司,北京中视盛元物业有限公司,116.30713409767503,39.89523918231763
北洼东里,85277,海淀 紫竹桥,北洼路,多层|高层,1.60元/平米/月,商品房住宅,1.50,2000户,40%,2000年,地上车位150元/月,暂无数据,业主自管,116.31236457133743,39.944849491785604
柏林爱乐(四期),60900,朝阳 管庄,朝阳北路,小高层|高层,1.80元/平米/月,商品房住宅,0.00,暂无数据,暂无数据,2008年,暂无数据,北京城乡房屋建设开发有限责任公司,北京正中方物业管理有限责任公司,116.59140880512392,39.92937321862477
翠微中里,95760,海淀 公主坟,万寿路乙15号,多层|小高层|高层,1.10元/平米/月,商品房住宅,2.80,1946户,40%,1988年,拥挤,"中国海底电缆建设有限公司,中国移动通信南京西路营业厅","中国海底电缆建设有限公司,中国移动通信南京西路营业厅",116.30481907454525,39.920089884004206
教场口街6号院,139117,西城 德胜门,教场口街6号,多层,0.50元/平米/月,商品房住宅,1.50,1020户,30%,2003年,350,北京德胜投资有限责任公司,北京市德源物业管理中心,116.38767302563036,39.95947110505852
金尚嘉园,106102,海淀 牡丹园,花园路甲2号,高层,2.98元/平米/月,商品房住宅,3.40,800户,30%,2004年,1：1，售价27万，地下车位380个，地面150个。租金450管理费80,上海百乐物业管理公司,五矿物业管理有限公司,116.37342446295331,39.98520897410521
吉祥里小区,90816,朝阳 朝外大街,朝外北街,多层|高层,2.00元/平米/月,商品房住宅,2.46,3000户,25%,1996年,3500个,上海豪景物业管理有限公司,北京东旭佳业物业管理有限责任公司,116.4449707239399,39.931809384042324
莲香园,65038,丰台 六里桥,六里桥北里16号,高层,1.76元/平米/月,商品房住宅,3.15,1700户,40%,1999年,150元/车位/月 地下450元/月,华凯投资集团有限公司,北京瑞思特物业管理有限公司,116.3079825472292,39.89433969605549
京贸国际公寓,42412,通州 通州北苑,八里桥南街16号,高层|超高层,2.45元/平米/月,商品房住宅,2.70,1600户,40%,2004年,地上租金150元/月，地下380元/月，售价12万,北京天旭运河房地产开发有限责任公司,北京天旭物业管理中心,116.62906289752456,39.91157684380896
罗庄东里,97773,海淀 知春路,知春路,多层,0.90元/平米/月,商品房住宅,1.50,847户,20%,1993年,地上车位150元/月,上海舜元集团,北京东升物业管理有限公司,116.35322489576428,39.98067086985696
幸福家园(二期),109472,东城 广渠门,幸福大街,小高层|高层,2.64元/平米/月,商品房住宅,2.40,暂无数据,35%,2001年,暂无数据,上海新北方物业管理有限公司,北京金宏宇物业服务有限公司,116.43802601387281,39.89885409890755
馨通家园,42742,通州 永顺,永顺西街89号,多层|小高层,0.70元/平米/月,商品房住宅,1.60,600户,40%,2002年,停车位200个、150元/月,北京恒泰房地产经纪有限公司,北京慧竹广羽物业管理有限公司,116.65140923522132,39.92128058005145
永泰自在香山,60000,海淀 香山,瀚河园路,多层,5.60元/平米/月,商品房住宅,0.67,356户,35%,2008年,充足,北京鼎嘉恒房地产开发有限公司,深圳金地物业管理公司,116.23910128919904,39.98184930793038
芳源里,48791,大兴 旧宫,南小街路,多层,1.25元/平米/月,商品房住宅,1.37,暂无数据,33%,2002年,暂无数据,北京军建利司达房地产开发有限公司,北京延龙物业管理有限责任公司,116.42370621556881,39.790700501706105
和兴家园(昌平),0,昌平 沙河,百沙路,多层,0.00元/平米/月,小产权房,0.00,暂无数据,暂无数据,暂无数据,暂无数据,暂无数据,暂无数据,116.3044032489247,40.15719233674784
姚家园西里七号院,38571,朝阳 姚家园,姚家园西里7号,多层,3.50元/平米/月,动迁配套房,0.00,暂无数据,暂无数据,暂无数据,暂无数据,"上海塘头建材有限公司,中企物业管理有限公司",北京金隅物业管理有限责任公司,116.51955271856693,39.950454756003715
国美第一城2号院,61643,朝阳 朝青板块,青年路西里2号,高层,2.12元/平米/月,商品房住宅,3.00,暂无数据,30%,2006年,暂无数据,上海复旦复华商业集团企业管理有限公司,美天物业有限公司,116.51820939250729,39.94012184232057
正华多彩嘉园,28000,大兴 生物医药基地,新源大街,多层,0.50元/平米/月,经济适用房,0.00,暂无数据,暂无数据,暂无数据,暂无数据,北京正华房地产开发有限责任公司,北京正华天泰物业管理有限责任公司,116.32560622336835,39.69790883761083
慧忠北里第一社区,67720,朝阳 奥林匹克公园,大屯北路,多层,0.65元/平米/月,商品房住宅,2.00,暂无数据,10%,1999年,暂无数据,华隆大厦物业管理有限公司,华民物业管理有限公司,116.40861800673156,40.01040206020591
芳星园三区,66064,丰台 方庄,群星路,高层,0.50元/平米/月,商品房住宅,3.40,4145户,30%,1995年,车位200个.150元/位・月,北京城市建设房地产开发有限公司,北京方庄鸿鹄物业管理公司,116.44201008864012,39.86650011634015
景王坟小区,104911,海淀 增光路,增光路,多层,1.00元/平米/月,商品房住宅,1.30,832户,40%,2015年,150元/车位/月,东城区住宅发展有限公司,业主自管,116.33335536601962,39.935036883336174
慧谷阳光,86460,朝阳 望京,阜安西路,高层,2.80元/平米/月,商品房住宅,2.69,951户,35%,2004年,停车位1：1，地表车位150元/月，地下车位400元/月,上海盛宇物业管理有限公司,北京阳光嘉业物业管理公司,116.48677337084673,40.00915648931875
龙湾别墅,70312,顺义 后沙峪,裕园路,低层,6.90元/平米/月,商品房住宅,0.47,288户,50%,2004年,1:2,上海锦艺物业有限公司,北京凯莱物业管理有限公司,116.51280222215108,40.089501429828324
周庄嘉园B区,62365,朝阳 华威桥,弘燕路,多层,0.60元/平米/月,商品房住宅,1.40,3500户,30%,2000年,100元/位・月,震旦大楼管理（上海）有限公司,北京金都宏业物业管理有限公司,116.4804463356483,39.8721175220598
香海园,50587,大兴 黄村,兴业大街,多层|小高层|高层,2.40元/平米/月,商品房住宅,3.20,9000户,35%,2004年,地上车位150元/月，地下车位260元/月,北京顺驰置地达兴房地产开发有限公司,深圳市长城物业管理有限公司北京分公司,116.32490797049545,39.78101210230362
十里堡北区,57903,朝阳 十里堡,石佛营路,多层,0.80元/平米/月,商品房住宅,1.90,900户,35%,2004年,车位充足,保利(北京)房地产开发有限公司,北京嘉安物业,116.4133836971231,39.910924547299565
华瀚福园(C区),30000,朝阳 东坝,东坝中路,多层,1.20元/平米/月,经济适用房,0.00,暂无数据,29%,暂无数据,暂无数据,华翰投资集团,和泓物业有限公司,116.57938696214498,39.96679310324039
奥竺苑,28386,顺义 天竺,小天竺路36号,小高层,1.96元/平米/月,商品房住宅,1.80,132户,35%,2001年,1：1 、地上出租价格150元/月.位,上海亨涛实业有限公司,北京奥竺物业管理有限公司,116.59661655165692,40.05198016820522
金盏嘉园D区,32941,朝阳 大山子,金港南路,多层|小高层,1.20元/平米/月,动迁配套房,0.00,暂无数据,暂无数据,暂无数据,暂无数据,北京市金色朝阳房地产开发有限公司,金旺物业公司,116.5569473803363,40.014810731484374
榆景苑,47776,通州 物资学院路,朝阳北路,多层,1.20元/平米/月,商品房住宅,0.00,暂无数据,30%,2000年,车位充足,北京市房屋权属登记事务中心,北京榆景苑物业管理有限公司,116.64589902922312,39.94170709714985
天河小区,14545,顺义 胜利,河北村东路1号,多层,2.00元/平米/月,小产权房,1.12,789户,30%,2009年,150元/车位/月,天河有限公司,北京城建物业管理有限责任公司,116.73163707997854,40.137237110352885
高丽园,38888,通州 土桥,颐瑞一街,高层,1.80元/平米/月,商品房住宅,2.30,暂无数据,20%,1995年,暂无数据,庆扬贸易有限公司,高丽园物业管理有限公司,116.69382874852184,39.87343780468764
新建村,35135,通州 物资学院路,物资学院路3号,多层,0.00元/平米/月,小产权房,0.00,暂无数据,30%,2000年,暂无数据,通州区住房和城乡建设委员会,北京长江永顺建筑有限公司,116.3624234543559,39.98836351974585
大慧寺12号院,110041,海淀 魏公村,大慧寺路12号,多层|高层,1.50元/平米/月,商品房住宅单位集体自建房,1.38,300户,25%,1995年,充足,北京国天物业管理发展有限公司,北京国天物业管理发展有限公司,116.33520300079256,39.95722349035738
安福苑,41980,昌平 昌平县城,北京市昌平区昌平镇财神庙胡同19号,多层,3.00元/平米/月,商品房住宅,2.98,60户,30%,1985年,150元/车位/月,"上海维塔斯电脑软件有限公司,上海鸿讯物流有限公司",福苑物业,116.24535205825967,40.23339086629223
卧龙小区,93933,朝阳 亚运村,慧忠北路,多层,1.75元/平米/月,商品房住宅,1.50,1700户,34%,2015年,车位： 1000个,"上海启明软件有限公司有限公司,上海宏远信息科技有限公司",北宇物业管理有限公司,116.40965770552882,40.0064185844406
汽修一厂宿舍,71087,朝阳 奥林匹克公园,花虎沟2号,多层,0.00元/平米/月,单位集体自建房,0.00,暂无数据,暂无数据,1980年,暂无数据,北京实业开发公司,无,116.37171804180655,40.017544083707534
阳光都市,101416,东城 东四十条,新中街18号,高层,2.86元/平米/月,商品房住宅,3.00,800户,37%,2000年,地上车位600个，租价500元/月，地下车位500个，租价600元/月,上海开天物业管理有限公司,北京戴德梁行物业管理有限公司,116.4472435267107,39.94149024615583
天天朝阳,62265,朝阳 甘露园,甘露园西里8号,小高层|高层,2.00元/平米/月,商品房住宅,2.60,552户,32%,2005年,地下车位，332个，1:1.5 350元/月,北京三合兴房地产开发有限公司,红|物业管理公司,116.5161160711774,39.923828187237135
新新公寓,39646,昌平 昌平县城,政府街6号,高层|超高层,1.20元/平米/月,商品房住宅,3.69,788户,40%,2003年,500个地下车位、150元/车位/月,上海比乐文化发展有限公司,北京立昌物业管理有限责任公司,116.24520293954502,40.225755843919075
万科大都会,76923,朝阳 CBD,东三环中路甲10号,高层,23.00元/平米/月,办公,6.40,69户,15%,2011年,超过1:1,北京万科汇通置业有限公司,北京万科物业服务有限公司,116.48437264937131,39.93199472960084
高杨树北里,55260,朝阳 东坝,驹子房路,多层,0.43元/平米/月,商品房住宅,1.90,1000户,30%,2004年,800,北京高苑房地产开发有限公司,北京高苑房地产开发有限公司,116.55715902111443,39.95521044594568
水南庄壹号,42187,朝阳 四惠,惠河南街,多层,0.00元/平米/月,小产权房,0.00,暂无数据,30%,暂无数据,暂无数据,暂无数据,暂无数据,116.52220721134891,39.911335614511174
金地格林格林(北区),45181,通州 北关,北安一路,高层,1.50元/平米/月,商品房住宅,2.28,暂无数据,30%,2013年,1059,中禧伟业(北京)投资有限公司,北京金地格林物业管理有限公司,116.66137270095469,39.957452112786584
翠景北里,50756,通州 九棵树,通马路,小高层,2.20元/平米/月,商品房住宅,2.25,暂无数据,42%,2002年,车位充足,北京瑞景房地产开发有限公司,北京瑞都物业管理有限公司,116.66170399602676,39.8935310547377
万泉庄1号院,104386,海淀 万泉河,万泉河路,多层,0.80元/平米/月,商品房住宅单位集体自建房,0.90,2600户,30%,1992年,无收费停车位，免费停车。,北京万泉房地产开发有限公司,闵行住宅建设综合经营公司,116.31199473895897,39.977563999222994
幸福家园5号院,36888,丰台 花乡,郭公庄北街5号,高层,1.85元/平米/月,商品房住宅,0.00,暂无数据,暂无数据,2014年,暂无数据,上海新北方物业管理有限公司,北京金宏宇物业服务有限公司,116.31328299889083,39.82432805771475
金蝉南里,58977,朝阳 垡头,金蝉南路,多层|高层,1.35元/平米/月,商品房住宅,3.00,1000户,30%,2015年,地上车位1500一年，地下停车库还有更多。,浙江八达股份有限公司、上海万峰房地产有限公司、上海合林标准有限公司,北京华侨城物业管理有限公司,116.50904514918615,39.868721314058604
三合南里(东区),40881,大兴 黄村,三中巷,多层,0.80元/平米/月,商品房住宅,1.62,2838户,36%,1996年,免费停车，车位充足,京南物业管理,京南物业,116.33147826682598,39.73981643484947
TBD云集中心,47593,昌平 北七家,七北路42号,高层,3.62元/平米/月,商品房住宅,2.50,暂无数据,30%,2015年,暂无数据,北京宁科置业有限责任公司,国贸物业酒店管理有限公司,116.37377821566312,40.104673632224376
工人体育场东路小区,78400,朝阳 朝外大街,工人体育场东路,多层,0.80元/平米/月,商品房住宅,2.20,1017户,30%,1988年,充足,三河福成房地产开发有限公司,银茂泰德物业管理有限公司,116.45620331569778,39.9310913727036
菜户营小区,64633,丰台 菜户营,鸭子桥路,小高层|超高层,1.90元/平米/月,商品房住宅,3.00,暂无数据,40%,2001年,充足,金泰城丽湾,金泰丽湾,116.35279523623886,39.87632213925686
龙湖长楹天街(西区),66983,朝阳 管庄,朝阳北路,高层,0.00元/平米/月,商品房住宅,0.00,暂无数据,暂无数据,暂无数据,暂无数据,暂无数据,暂无数据,116.60439704517049,39.929698345427774
K2玉兰湾,61984,通州 九棵树,怡乐北街,小高层|高层,2.50元/平米/月,商品房住宅,3.00,2337户,12%,2014年,"地下1891个停车位 ,车位充足1:1",北京祈连房地产开发有限公司,北京东方乔戈里物业服务有限公司,116.66641722537653,39.893071441035666
万方景轩,87177,朝阳 太阳宫,太阳宫中路,高层,1.60元/平米/月,商品房住宅,5.00,1708户,30%,2005年,地上150元/月 地下300元/月,上海正荣御品置业发展有限公司,北京万方新源物业管理有限公司,116.45566927307208,39.978157463636094
鲁疃嘉园,48314,昌平 北七家,鲁疃中路,多层,1.55元/平米/月,小产权房,0.00,暂无数据,18%,暂无数据,暂无数据,暂无数据,暂无数据,116.48097696471305,40.11523706425467
新宫家园北区,33629,丰台 新宫,南苑西路,高层,0.59元/平米/月,商品房住宅,0.00,暂无数据,30%,2015年,暂无数据,"阿克苏若贝尔,古驰贸易有限公司",北京泰宇物业管理有限公司,116.36977725275224,39.81983593430988
北辰福第(中区),54139,朝阳 常营,常营北小街2号,多层,1.80元/平米/月,商品房住宅,0.00,暂无数据,30%,2008年,住宅部分机动车总停车位共1103个，其中地上703个,"上海古沙贸易有限公司,展途化工有限公司",北辰物业管理有限公司,116.60805180113782,39.93582220976192
兆丰家园东区,19277,昌平 沙河,高教园南三街,高层,1.45元/平米/月,小产权房,0.00,暂无数据,暂无数据,2009年,暂无数据,上海陆裕科技有限公司,北京玉泉物业管理中心,116.29063033901515,40.158008586800705
太玉园东区,20000,通州 土桥,张采路,多层,2.00元/平米/月,小产权房,2.00,暂无数据,30%,2001年,暂无数据,北京太玉园房地产开发公司,太玉园物业管理公司,116.71073099550594,39.86025411057525
德林园,47802,大兴 旧宫,小红门路,多层|小高层,1.00元/平米/月,商品房住宅,1.44,636户,30%,2004年,430,北京兴海创业投资管理有限公司,北京博爱物业公司,116.46531743357146,39.81846709015994
马泉营(三区),57399,朝阳 来广营,香江北路,低层,0.80元/平米/月,商品房住宅,0.00,暂无数据,33%,2015年,100/每月,"阿克苏若贝尔,古驰贸易有限公司",北京亿宏达盛物业有限公司,116.5120395607731,40.04489977513726
假日风景B区,71760,丰台 青塔,小屯西路109号,小高层|高层,1.70元/平米/月,商品房住宅,1.93,暂无数据,30%,2007年,暂无数据,北京中粮万科假日风景房地产开发有限公司,北京万科物业服务有限公司,116.252778080419,39.87270318692367
大秤钩胡同小区,93000,西城 西单,大秤钩胡同,多层,0.30元/平米/月,商品房住宅,0.00,暂无数据,暂无数据,暂无数据,暂无数据,暂无数据,暂无数据,116.4205602598423,39.92860144255692
南厂住宅(东区),29178,昌平 南口,西民路,多层,1.00元/平米/月,商品房住宅,0.00,2106户,30%,2015年,暂无数据,上海巨宏物业服务有限公司,上海巨宏物业服务有限公司,116.13410078356262,40.251646306655864
金地朗悦润园,49557,房山 良乡,文昌东路,多层,2.98元/平米/月,商品房住宅,0.00,暂无数据,30%,2014年,暂无数据,上海第一太平戴维斯物业管理有限公司,北京金地物业,116.19732379484651,39.74465703647514
五福玲珑居,53461,海淀 四季青,彰化路,多层,0.50元/平米/月,动迁配套房,0.80,500户,35%,2012年,500,"上海复深蓝软件有限公司,上海悠星网络科技有限公司",业主自管,116.29300474013912,39.94590042765907
北京城建世华泊郡,77357,朝阳 北苑,水岸中街19号,高层|超高层,2.98元/平米/月,商品房住宅,0.00,暂无数据,30%,2012年,暂无数据,汇丰银行、爱马仕、上海克顿文化传媒有限公司,北京城承物业管理有限责任公司,116.43031307293359,40.05651591108006
柏林爱乐(三期),59372,朝阳 管庄,朝阳北路,小高层|高层,1.80元/平米/月,商品房住宅,0.00,暂无数据,暂无数据,2007年,暂无数据,北京城乡房屋建设开发有限责任公司,北京正中方物业管理有限责任公司,116.59523774252965,39.92950040625763
润枫水尚(东区),77260,朝阳 朝青板块,青年路,小高层,3.90元/平米/月,商品房住宅,2.00,暂无数据,30%,2007年,暂无数据,北京润丰房地产开发有限公司,北京润丰物业管理有限公司,116.52169975856631,39.9334546539815
观音惠园,49686,朝阳 四惠,高碑店路,多层,0.60元/平米/月,商品房住宅经济适用房,1.46,1090户,35%,2006年,150元/车位/月,"北京京海集团上海有限公司,上海智达科技有限公司",北京康居安物业管理有限公司,116.52762399357408,39.89635613684839
欣桥家园,25000,通州 土桥,张采路,多层|小高层,2.00元/平米/月,小产权房,1.35,暂无数据,25%,2006年,暂无数据,上海爱邦城房地产开发有限公司,和信天源物业管理公司,116.70505487248005,39.87240942066068
隆福寺四合院,154981,东城 东四,东四北大街,多层,0.00元/平米/月,商品房住宅,0.00,暂无数据,暂无数据,2001年,暂无数据,暂无数据,暂无数据,116.40818502347575,39.942080084771035
广外南社区,103007,朝阳 劲松,广渠门外大街,多层,0.00元/平米/月,商品房住宅,0.00,暂无数据,暂无数据,1992年,暂无数据,无,业主自管,116.46335849874585,39.89830228698271
神龙辛屯小区,38501,通州 马驹桥,辛房路,多层,0.65元/平米/月,商品房住宅,1.80,暂无数据,30%,2001年,1:0.5,北京伯雅房地产开发有限公司,神龙物业,116.55037073568072,39.72417904752747
恋日绿岛小区,47062,朝阳 十八里店,博大路25号,多层,0.96元/平米/月,商品房住宅,1.69,510户,30%,2002年,充足,鲁能集团有限公司上海分公司,北京华野家园物业管理有限公司,116.48430437815254,39.832594096182845
双惠苑,49920,朝阳 双桥,双桥路,多层|高层,0.52元/平米/月,商品房住宅,2.80,2382户,30%,2002年,小区内停车位200元/月，小区外马路边1个月100元,"上海塘头建材有限公司,中企物业管理有限公司","上海塘头建材有限公司,中企物业管理有限公司",116.5816263479508,39.91138092722061
贵园北里甲区,47181,大兴 亦庄,"贵园南街,近西环北路",多层,0.50元/平米/月,商品房住宅,1.22,暂无数据,38%,1995年,暂无数据,贵园房地产开发有限公司,北京贵园物业管理有限公司,116.48709406591378,39.803377018224836
尚峰尚水,61476,海淀 温泉,温北路8号,多层,3.00元/平米/月,商品房住宅,1.50,2822户,30%,2012年,3000,北京世纪正源房地产开发有限公司,北京正源和美物业服务有限公司,116.14099590716553,40.10187605719139
海淀嘉郡,55853,海淀 上庄,上庄路,高层,2.68元/平米/月,经济适用房,3.50,2070户,30%,暂无数据,暂无数据,上海一方竞艺物业管理有限公司,北京佰嘉国仕物业管理有限公司,116.21522648467706,40.132955572238274
誉天下,55204,顺义 天竺,玫瑰路,低层,5.80元/平米/月,商品房住宅,0.52,暂无数据,40%,2008年,地上150元/月,北京丽来房地产开发有限公司,侨乐物业服务有限公司,116.56428626686115,40.065290929204735
东四二条11号院,89940,东城 东四,东四二条11号,多层,0.00元/平米/月,经济适用房其他,0.00,暂无数据,暂无数据,暂无数据,暂无数据,暂无数据,暂无数据,116.42673602039287,39.93260207855394
垂杨柳中里,65083,朝阳 双井,垂杨柳南街,多层,0.80元/平米/月,商品房住宅,1.70,750户,30%,1976年,免费,暂未获知,双井街道垂东社区,116.46383738541321,39.89435242830809
羊各庄新村,22457,昌平 北七家,定泗路,多层,1.50元/平米/月,小产权房,1.30,1560户,30%,2008年,免费,"上海华东科技有限公司,上海云角信息技术有限公司",宇辰公司物业管理,116.45231715623105,40.12196919596539
观唐,89285,朝阳 来广营,观唐东路1号,低层,9.00元/平米/月,商品房住宅,0.43,326户,暂无数据,2004年,1:1,博华紫光置业有限公司,业主自管,116.42295047114327,40.000943064426046
林奥嘉园,67626,朝阳 北苑,清林东路,高层,2.96元/平米/月,商品房住宅,4.07,暂无数据,30%,2015年,暂无数据,北京运达通汇文化产业有限公司,北京通商汇才物业管理有限公司,116.41431308400372,40.04083809591461
海户西里34号院,58266,丰台 洋桥,马家堡东路,高层,1.70元/平米/月,商品房住宅,3.50,200户,40%,1998年,16元/车位/月,北京城市建设有限责任公司,业主自管,116.39558089886525,39.85660494794929
枫桦豪景,116906,西城 陶然亭,广安门内大街6号,小高层|高层,2.60元/平米/月,商品房住宅,2.30,660户,40%,2002年,每户一位，出售10-15万元/位,上海工投房地产发展有限公司,北京枫景物业管理公司,116.3779850701969,39.89378902384944
定福庄西街小区,50933,朝阳 定福庄,定福庄西街,多层,0.80元/平米/月,商品房住宅,1.20,2759户,30%,1990年,2400,上海凯辉物业管理有限公司,北京欣亚中有限公司,116.5571290177104,39.91741506493839
富力又一城(C区),58164,朝阳 豆各庄,大鲁店北路,高层,2.20元/平米/月,商品房住宅,2.60,暂无数据,35%,2004年,暂无数据,北京华恩房地产开发有限公司,北京恒富物业服务有限公司,116.56444194320603,39.853054947808104
世茂维拉,38889,房山 长阳,东环路,多层|高层,2.80元/平米/月,商品房住宅,2.30,606户,31%,2015年,共780个停车位,贝思特物业,上海世茂南京物业服务有限公司北京第二分公司,116.18407298009937,39.75002597358078
五道口嘉园,92980,海淀 五道口,展春园西路3号,高层,2.00元/平米/月,商品房住宅,0.00,暂无数据,41%,2005年,暂无数据,暂无数据,北京法政置地物业管理有限公司,116.34613582800174,39.9959026690237
金地未未来,25000,顺义 顺义城区,军营北街,小高层|高层,0.00元/平米/月,办公,2.70,暂无数据,20%,2015年,暂无数据,北京诚通恒业房地产开发有限公司,北京金地格林物业管理有限公司,116.63771564568833,40.11312801400982
新怡家园,122643,东城 崇文门,东兴隆街,多层|高层,2.93元/平米/月,商品房住宅,2.30,668户,30%,2006年,1027个底下车位，月租550元一位,上海友喜建设集团有限公司,北京新世界物业管理有限公司,116.42158378914037,39.90456742430337
万泉新新家园,136610,海淀 万柳,巴沟南路35号,多层,3.00元/平米/月,商品房住宅,1.75,1300户,40%,2000年,小区人车分流，每个房子都有地下停车位，单买的话大概50万左右。,北京万泉花园物业开发有限公司,万通物业管理有限公司,116.30557499863191,39.97771203753077
建新南二社区(建新南区),51138,顺义 顺义城区,光明南街,多层,0.43元/平米/月,商品房住宅,2.00,2200户,30%,1987年,地面免费停车，无地下车库,北京航空航天大学校友产业基地,业主自管,116.66156898070862,40.1268670388764
航空港社区,84134,海淀 苏州桥,苏州街52号,多层,0.00元/平米/月,商品房住宅单位集体自建房,0.00,暂无数据,暂无数据,1980年,暂无数据,暂无数据,北京中航恒远物业管理有限公司,116.31628702234674,39.97418708990934
新桥大街61号院,30807,门头沟 大峪,新桥大街61号,多层|小高层|高层,0.00元/平米/月,商品房住宅,1.60,360户,35%,1993年,150元/位・月，车位充足,上海宝城房地产开发有限公司,北京西宇嘉业物业管理有限公司,116.10640548570667,39.94558775536655
富力城(A区),101116,朝阳 双井,广渠门外大街,高层,2.98元/平米/月,商品房住宅,2.70,1920户,45%,2000年,1500户车位数量地上1500个。地上价格：10元/小时、地下900元/月，地下2元/小时,北京富力城房地产开发有限公司,中外合资北京恒富房地产开发有限公司,116.46587707790417,39.90105652769473
国瑞城(中区),105175,东城 崇文门,国瑞东路23号,高层,3.10元/平米/月,商品房住宅动迁配套房,2.70,暂无数据,30%,2005年,暂无数据,中闵物业管理有限公司,石家庄国瑞物业服务有限公司,116.42932215212554,39.90446025414163
紫芳园(一区),69978,丰台 方庄,方庄路,多层,0.62元/平米/月,商品房住宅,2.00,1532户,31%,2002年,80,上海映巷集团,北京大方物业管理有限责任公司,116.44975033806685,39.87078025467207
梨花园,46310,通州 梨园,梨园北街,多层,0.60元/平米/月,商品房住宅,1.20,1622户,35%,1992年,充足,通州区建设委员会,北京银丰恒泰物业管理有限公司,116.6776767662997,39.89085553626136
华富丽苑,50827,丰台 青塔,吴家村路,高层,1.60元/平米/月,商品房住宅,0.00,1680户,20%,2007年,"现有停车位550个,车位充足！",江苏金枫物业服务有限责任公司上海分公司,北京玉泉物业服务有限公司,116.25844683733973,39.89656268354792
芳园里社区(南区),60985,朝阳 酒仙桥,将台路,多层,0.00元/平米/月,商品房住宅其他,2.00,5347户,20%,2015年,800个,银矽物业管理有限公司,业主自管,116.4935320418427,39.97883558384243
二里庄小区,99113,海淀 二里庄,志新西路10号,多层,0.60元/平米/月,商品房住宅,1.00,4900户,40%,1990年,小区无固定停车位，可办停车证，一般是一年240元。,"快板电子科技有限公司,上海久誉软件系统有限公司",北京市海淀区志新物业管理公司,116.3753525858999,40.001235929628145
丽斯花园别墅,75264,顺义 天竺,开发街16号,低层,1.30元/平米/月,商品房住宅,0.39,109户,40%,1996年,充足,香港新世界房地产开发有限公司,侨乐物业管理公司,116.57255489958885,40.04921161600202
庑殿家苑(A区),29069,大兴 旧宫,南厂东街1号,多层,1.50元/平米/月,商品房住宅,1.83,暂无数据,20%,2004年,300,北京芜殿房地产开发集团公司,北京芜殿家园物业管理公司,116.439060322837,39.826986728303766
旧宫清逸园甲区,36095,大兴 旧宫,旧宫东路,多层,0.60元/平米/月,商品房住宅,1.50,暂无数据,50%,1999年,暂无数据,北京市南郊二建,北京盛兴物业管理服务有限公司,116.45652068703444,39.811404636909174
万科红,71352,丰台 宋家庄,"石榴庄路,近宋庄路",高层,4.68元/平米/月,商品房住宅,4.50,300户,30%,2013年,小区有停车位300个,北京万科企业有限公司,北京万科物业有限公司,116.43620883165667,39.85227365013377
和乔丽致,93577,朝阳 CBD,光华路甲8号,高层,5.50元/平米/月,商品房住宅,4.00,暂无数据,26%,2003年,暂无数据,北京奥德房地产开发有限公司,北京和乔物业管理公司,116.47801713788822,39.91793137429917
云景豪庭,37476,通州 梨园,北京市通州区云景东路349号,多层|小高层,1.20元/平米/月,小产权房,0.00,暂无数据,40%,2001年,暂无数据,北京博宏房地产开发有限公司,北京广亨永利物业管理有限公司,116.6740939646037,39.88388155975017
高杨树南里,49325,朝阳 东坝,富东家园路,多层,0.43元/平米/月,商品房住宅,2.20,868户,35%,1986年,充足,上海大沽映像文化投资管理中心,北京富乐园物业管理有限公司,116.55774444681528,39.95367431696537
望京中环南路11号院,68200,朝阳 花家地,花家地街,多层,0.80元/平米/月,商品房住宅经济适用房动迁配套房,0.75,1514户,40%,1995年,150,上海五角场集团物业管理有限公司,北京城建物业管理有限责任公司,116.47745973931927,39.99235482881488
六里屯东里,60493,朝阳 朝阳公园,姚家园路,多层,0.00元/平米/月,商品房住宅,1.50,1134户,30%,1980年,150元/车位/月,上海丽景物业管理有限公司,德诚永信中海物业,116.48958165353201,39.93621535364929
蓝岸丽舍,30407,顺义 南彩,左堤路,低层,5.80元/平米/月,商品房住宅,0.58,266户,70%,2011年,600,北京银座合智房地产开发有限公司,北京世邦魏理仕物业管理服务有限公司,116.74487549810965,40.12059733345158
北苑南路24号院,50709,通州 通州北苑,北苑南路24号,多层,0.65元/平米/月,商品房住宅,1.50,暂无数据,20%,2001年,充足,北京联成房地产开发公司,北京宜和嘉诚物业管理有限公司,116.64683102118971,39.90739225537204
奥林匹克花园(一期),74485,朝阳 东坝,东坝中路,多层|小高层,1.50元/平米/月,商品房住宅,2.10,846户,40%,2003年,地面车位150元/月，地下车位300元/月,上海盛顺餐饮有限公司,北京奥园物业管理有限公司,116.55186000674163,39.968370062566024
巴克寓所,52461,通州 果园,怡乐中街99号,多层|小高层|高层,1.60元/平米/月,商品房住宅,1.47,820户,39%,2001年,地上车位及地下车库，地上租价150元/月,北京万德福房地产开发有限公司,北京万愿Ｎ镆倒芾碛邢薰司,116.64656916513357,39.8934217220399
福怡苑小区(北区),51338,朝阳 定福庄,定福庄北街,多层,0.85元/平米/月,商品房住宅,1.60,1510户,30%,2000年,1:1,北京市基础设施投资有限公司,瑞奇物业,116.5612295128718,39.92665885741425
常楹公元,74505,朝阳 常营,朝阳北路,高层,3.80元/平米/月,商品房住宅,3.20,976户,30%,2013年,车位：1:1,上海纳腾仪器有限公司、领际教育国际课程中心,北京安泰众和物业管理有限公司,116.60031918730795,39.92740610256602
南太平庄北巷小区,53944,朝阳 高碑店,朝阳路,多层,0.50元/平米/月,商品房住宅,2.00,486户,35%,1980年,300,上海机场城市航站楼管理有限责任公司,业主自管,116.54235925817645,39.92545781167433
自来水宿舍,39756,昌平 昌平县城,昌平区鼓楼南街草场胡同,多层,1.50元/平米/月,商品房住宅,1.98,暂无数据,30%,1997年,车位充足,暂未获知,昌平区城北街道五街社区居民委员会,116.23980169800518,40.219721423953054
天通西苑一区,38247,昌平 天通苑,立汤路,多层,0.55元/平米/月,经济适用房,1.10,2536户,30%,2015年,地面车位150元/月 180元/月,北京顺天通房地产开发有限公司,北京顺天通物业管理公司,116.41853610174853,40.15415746050282
马家堡西里,58346,丰台 马家堡,马家堡中路,多层,1.80元/平米/月,商品房住宅,2.00,6520户,28%,1998年,150元/位・月,"阿克苏若贝尔,古驰贸易有限公司",北京城建物业管理有限责任公司,116.38072103928864,39.85883761510765
西马金润家园,61121,丰台 角门,马家堡路,小高层,2.68元/平米/月,商品房住宅,1.70,500户,35%,2005年,暂无数据,北京金易房地产开发有限公司,北京西马物业管理有限责任公司,116.38928701114014,39.8442010547269
翠微路2号院,100722,海淀 公主坟,翠微路2号,多层,0.00元/平米/月,商品房住宅,2.00,2343户,40%,1990年,本小区业主免费停车，地锁车位,珈御投资管理有限公司、碧蔓智能科技有限公司、德樱纺织品有限公司、任道房地产经纪有限公司,中房集团北京物业公司,116.30519196116245,39.91639730698177
君安国际,33331,大兴 亦庄,荣华南路,高层,3.60元/平米/月,办公,3.00,774户,30%,2013年,地下707个,上海松港电子实业有限公司,北京晟邦物业管理有限公司,116.5193629964432,39.79424370231706
佰汇古玩珠宝城A座商业,40000,朝阳 十里河,吕营大街,多层,0.00元/平米/月,商业,0.00,暂无数据,暂无数据,暂无数据,暂无数据,暂无数据,暂无数据,116.46808322640611,39.86590768317421
永乐(东区),52603,石景山 鲁谷,鲁谷大街,多层,0.50元/平米/月,商品房住宅其他,1.00,7000户,18%,1990年,地上车位1000个、150元/月,"阿克苏若贝尔,古驰贸易有限公司",芳星园物业有限公司,116.23924295197799,39.90624427977269
丽园(C区),47244,大兴 黄村,圣和巷5号,小高层,1.60元/平米/月,商品房住宅,1.83,2305户,40%,2007年,地上和地下停车位，配置充足，20万/个,上海杰森物业服务发展有限公司,北京金冠物业管理有限责任公司,116.32685675446879,39.75496715608704
光辉里,76220,朝阳 CBD,大望路,高层,1.80元/平米/月,商品房住宅,0.00,暂无数据,30%,2015年,暂无数据,北京房地产开发有限公司,北京红星酒厂股份有限公司,116.48420403742708,39.91492207389635
门头馨村(北二区),54112,海淀 香山,闵庄路,小高层,2.00元/平米/月,商品房住宅,2.00,暂无数据,30%,2005年,暂无数据,基强联行投资管理(中国)有限公司,北京四季嘉诚物业管理有限公司,116.2216904216352,39.983108718514224
昊天伟业嘉园西里,41910,房山 良乡,"良乡东路,近竹园街",多层,1.00元/平米/月,商品房住宅,1.05,暂无数据,30%,2007年,1：1,北京韩建房地产开发有限公司,北京韩建物业管理服务有限公司,116.16598461051991,39.739182605376314
龙锦苑东一区,40706,昌平 回龙观,露营西路,多层,0.65元/平米/月,经济适用房,1.50,1560户,28%,2007年,停车位充足610个 ，月租金150元，年租金1600元,"上海芝阁信息科技服务有限公司,上海窗钩厂",北京天鸿宝地物业管理经营有限公司,116.37472359238183,40.09491169305946
兴政东里,38525,大兴 黄村,兴政街3号,多层,0.80元/平米/月,商品房住宅,1.40,896户,35%,1994年,150元/月,上海嘉保物业管理有限公司,北京大兴城建开发物业管理二公司,116.34970263985966,39.73347510127448
行宫御东园,26402,密云 密云城区,行宫街48号,高层,1.80元/平米/月,商品房住宅,4.18,903户,30%,2012年,暂无数据,上海汇纯置业有限公司,"上海海邦实业有限公司,上海博隆食品有限公司",116.87045151179105,40.39380667590826
颐阳山水居西区,28619,海淀 温泉,温泉路,多层,1.00元/平米/月,小产权房,1.53,暂无数据,30%,1995年,暂无数据,庆扬贸易有限公司,保利物业管理(北京)有限公司,116.19892017356828,40.04532660116391
霞光里35号院,68558,朝阳 三元桥,霄云路,多层,0.00元/平米/月,商品房住宅,0.00,暂无数据,暂无数据,1983年,暂无数据,暂无数据,暂无数据,116.46770692622799,39.96183097887575
天骥智谷,15000,大兴 亦庄,经海三路109号,小高层,0.00元/平米/月,办公,0.00,暂无数据,暂无数据,暂无数据,暂无数据,暂无数据,暂无数据,116.5593620255471,39.78765410855659
金茂悦(亦庄金茂悦北区),57147,大兴 亦庄,四海路,高层,4.45元/平米/月,商品房住宅,2.29,1360户,30%,2016年,车位1:1.5,中国金茂控股集团有限公司,中化金茂物业管理（北京）有限公司,116.49062171165146,39.760358856544805
考拉社区,92683,西城 白纸坊,鸭子桥路1号,高层,1.76元/平米/月,商品房住宅,4.10,800户,31%,2005年,地下车位320元/月,磊鑫物业管理有限公司,北京首华物业管理有限公司,116.35311206859222,39.88238001349813
燕保祈东家园二期,40000,朝阳 垡头,化工路,高层,0.00元/平米/月,动迁配套房,0.00,暂无数据,暂无数据,暂无数据,暂无数据,暂无数据,暂无数据,116.54298699406682,39.85775708479542
丽泽景园,67796,丰台 丰益桥,益泽路,小高层|高层,1.79元/平米/月,商品房住宅,0.00,暂无数据,30%,2012年,总数1100个 地上车位600个,暂未获知,北京恒丰房地产开发有限公司,116.31352967358386,39.87069532045027
庄胜二期,141279,西城 宣武门,香炉营东巷2号,小高层,2.80元/平米/月,商品房住宅,6.12,暂无数据,26%,2004年,暂无数据,上海前卫出租车限公司,庄胜芳庭苑芳芷苑物业有限公司,116.38698950496783,39.90385908797795
祥和乐园,19666,通州 土桥,张采路,多层,0.58元/平米/月,小产权房,1.51,2198户,40%,2005年,停车位充足,北京通州张家湾镇马营村委会,祥和乐园物业管理公司,116.7118986130078,39.843729404762136
福成公寓(南区),19540,北京周边 燕郊,行宫东大街450号,多层|超高层,2.28元/平米/月,商品房住宅,3.42,暂无数据,35%,2009年,暂无数据,三河福成房地产开发有限公司,三河福成房地产开发有限公司,116.81832814304954,40.49122959538683
望京西园三区,67032,朝阳 望京,望京街,高层,1.70元/平米/月,商品房住宅,3.00,3400户,20%,2003年,地上3000个、没有地下车位。固定车位350/月，地上车位150/月,北京高校房地产开发总公司,北京望京实业总公司,116.48086503584649,40.00566806430206
鼓楼东区,28106,密云 密云城区,新中街,多层,0.56元/平米/月,商品房住宅,2.10,1305户,10%,1995年,50元/月,"第四建筑设计部,申万宏源研究",业主自管,116.85576745060274,40.38378640293734
帝京花园,110659,丰台 科技园区,帝京路1号,低层,5.00元/平米/月,商品房住宅,1.00,890户,35%,1994年,私家车位，剩下的150一月！,北京宝隆城房地产开发经营中心,帝京花园物业管理公司,116.30201699016798,39.83916806048148
康营家园(6期),43611,朝阳 孙河,兰花苑南路,多层,1.20元/平米/月,商品房住宅,0.00,暂无数据,30%,2010年,暂无数据,"上海芝阁信息科技服务有限公司,上海窗钩厂",房修一公司,116.54992631430083,40.04442019677318
燕保祈东家园,38606,朝阳 垡头,化工路,高层,2.45元/平米/月,动迁配套房,0.00,暂无数据,暂无数据,2018年,暂无数据,上海纳腾仪器有限公司、领际教育国际课程中心,北京大唐物业管理有限公司第二分公司,116.53939547880738,39.860067530868406
丰泰家园,39000,丰台 五里店,刘庄子路,多层,0.00元/平米/月,商品房住宅,0.00,暂无数据,暂无数据,暂无数据,暂无数据,暂无数据,暂无数据,116.25296654491501,39.85579357324876
东方夏威夷,27971,北京周边 燕郊,北蔡街301号,多层,1.70元/平米/月,商品房住宅,0.44,3084户,35%,2008年,地下车库,三河兴达房地产开发有限公司,廊坊亿人物业,116.34249697204191,39.85243705591868
兆丰家园西区,27075,昌平 沙河,高教园南三街,高层,1.45元/平米/月,小产权房,0.00,暂无数据,30%,2009年,车位充足,江苏金枫物业服务有限责任公司上海分公司,北京玉泉物业服务有限公司,116.28640390142125,40.156857548673585
太平桥中里,72712,丰台 太平桥,北京西站南路,多层|高层,0.90元/平米/月,商品房住宅,2.00,2000户,30%,1988年,车位充足，年付1440元，月付120元,国海证券、联想,太平桥物业公司,116.3282886534517,39.898399779847914
吕家营,38095,朝阳 十里河,吕家营村28号,多层,0.00元/平米/月,小产权房,0.00,暂无数据,30%,2004年,暂无数据,震旦大楼管理（上海）有限公司,万通鼎安国际物业顾问管理有限公司（物业顾问）,116.47669860506066,39.84916249536461
龙腾苑(四区),51471,昌平 回龙观,文华东路,多层,0.65元/平米/月,经济适用房,0.85,2600户,30%,2003年,150元/车位/月 1600/车位/年,"上海芝阁信息科技服务有限公司,上海窗钩厂",北京天鸿宝地物业管理经营有限公司,116.34908002431068,40.07910304129584
武装部家属楼,20433,房山 房山城关,北顺城街9号,多层,0.00元/平米/月,商品房住宅,0.00,暂无数据,暂无数据,暂无数据,暂无数据,暂无数据,暂无数据,116.4133836971231,39.910924547299565
信恒大厦,88984,西城 长椿街,广安门内大街208号,高层,2.50元/平米/月,商品房住宅,7.90,290户,30%,2003年,停车位100个，地面车位150元/月,渡边物华园管理有限公司,信恒物业管理公司,116.36831166731271,39.894536561324955
明悦湾,37672,大兴 亦庄,五福堂北路2号,小高层,2.28元/平米/月,商品房住宅,1.60,722户,30%,2010年,722个 车位配比1：1 车位费：地上150元/月,北京日月房地产开发有限公司,北京天宇恒业物业管理有限公司,116.42884793664682,39.7912694719563
佟馨家园A区,32703,大兴 黄村,永华路,高层,1.20元/平米/月,商品房住宅,0.00,暂无数据,暂无数据,暂无数据,暂无数据,暂无数据,暂无数据,116.31858785224944,39.731793019865485
珠江四季悦城,30000,通州 马驹桥,兴贸三街,小高层,3.60元/平米/月,商业,2.30,3344户,50%,2015年,共1914个机动车停车位，自行车位5888个,北京珠江投资开发有限公司,广东康景物业服务有限公司北京分公司,116.58922924646505,39.76628201171778
德顺园,46795,海淀 四季青,燕桥金路,多层,1.00元/平米/月,动迁配套房,0.00,108户,31%,2006年,1200一年,青远房地产开发有限公司,青远物业,116.26297393778782,39.96000679677372
慧忠里小区,94427,朝阳 亚运村,北辰东路,多层|高层,1.50元/平米/月,商品房住宅,2.20,1300户,34%,1996年,地面租金150元每月，一年1200元,北京华汇房地产开发公司,北宇物业管理有限公司,116.41018195662443,40.00307005638415
听涛雅苑,63190,大兴 亦庄,天华西路,多层|小高层,1.80元/平米/月,商品房住宅,1.60,545户,39%,2000年,一户一车位，1:1,北京愿景房地产开发有限公司,北京美好愿京物业管理有限公司,116.49732100465323,39.804273064350866
惠新南里2号院,70491,朝阳 芍药居,惠新北街,高层,1.10元/平米/月,商品房住宅,2.50,300户,30%,1991年,充足,北京驻总集团有限公司,业主自管,116.42843399746782,39.98556106046525
展春园小区,89377,海淀 五道口,北四环中路279号,多层,0.00元/平米/月,商品房住宅,2.16,2480户,30%,1986年,450个,中科院，工商银行，三建工程公司,北京安居物业管理有限公司,116.37262622867712,39.99393147001058
人大静园,61157,海淀 人民大学,静园一路,小高层,0.60元/平米/月,商品房住宅,2.50,1215户,33%,2000年,200,人民大学,业主自管,116.32052628594671,39.97856239724321
燕化星城健德四里,27072,房山 阎村,紫燕中路,多层|高层,0.60元/平米/月,商品房住宅,0.00,9211户,30%,1996年,充足,"上海敏信科技有限公司,上海仪电电子工程管理有限公司",华润置地(北京)物业管理有限责任公司,116.06515897974108,39.71777508332757
柳芳北里社区,78613,朝阳 柳芳,柳芳北街,多层,0.50元/平米/月,商品房住宅,1.50,3000户,30%,1988年,520个停车位,亿方物业,亿方物业管理有限责任公司,116.44422504053607,39.96223710642125
季景沁园,83065,朝阳 望京,湖光中街,高层,3.90元/平米/月,商品房住宅,3.35,1859户,45%,2005年,地下车库，共有1952 北门地上车位153个。地下负二层也是车库，车库比例1:1.5,上海纵友物业管理有限公司,长城物业集团股份有限公司,116.4619274082379,40.00144347004279
芳古园一区,69421,丰台 方庄,方庄蒲芳路9号,高层,0.64元/平米/月,商品房住宅,2.83,2420户,30%,1992年,200元/车位/月 地上150元/车位/月 地下停车场200元/车位/月,北京城市建设房地产开发有限公司,北京方庄物业管理有限责任公司,116.43110403093513,39.874733074373154
世茂奥临花园,81311,朝阳 北苑,清林路一号,小高层|高层|超高层,4.48元/平米/月,商品房住宅,2.28,1190户,55%,2000年,1300个，总数：258个，比例：0:258，地下车位：258个，2240个车位，租金600-650元/月，售价25-30万/个,世茂投资发展有限公司,长城物业集团股份有限公司,116.4096347987383,40.04052724236545
金科廊桥水岸,60145,昌平 南邵镇,南丰路,多层,3.00元/平米/月,商品房住宅,1.20,998户,60%,2013年,总车位：998。其中地上298；地下：700,上海松天物业管理有限公司,金科物业管理有限公司,116.28210362311445,40.200957556643424
红杉国际公寓,60965,海淀 五道口,双清路89号,高层,4.80元/平米/月,商品房住宅,4.52,625户,30%,2010年,车位充足，1:1,北京中鸿房地产开发有限公司,北京德佳物业管理有限公司,116.34518667839988,40.008082216974664
橙色年代,72461,海淀 公主坟,万丰路18号,高层,1.46元/平米/月,商品房住宅,4.50,849户,30%,2003年,停车位376个，出租地上150元/月、地下300－410元/月,"普能自动化仪表有限公司,上海优浦科学仪器有限公司",北京首华物业管理有限公司,116.30261822604581,39.89379795033821
澳林春天(三期),79317,朝阳 奥林匹克公园,林萃西里一号路,多层,0.70元/平米/月,商品房住宅,0.00,暂无数据,暂无数据,2002年,暂无数据,上海虹供工贸有限公司,北京林萃物业管理有限责任公司,116.66105586860132,40.07954076172198
上上城青年新城,18084,北京周边 燕郊,燕顺路,高层,1.72元/平米/月,商品房住宅,0.00,暂无数据,暂无数据,暂无数据,暂无数据,暂无数据,三河市惠安物业管理有限公司,116.75607736781907,39.9378971677632
新龙城,56494,昌平 回龙观,昌平路380号,小高层|高层,2.00元/平米/月,商品房住宅,2.45,6000户,40%,2000年,1：1.7，3500个，地上车位3500个地上：150元/车位/月年付1500,"凯兴实业有限公司,庆恒科技有限公司",新龙天宇物业管理有限公司,116.38753802648172,39.98243728295519
CBD高尔夫球会别墅,69288,朝阳 高碑店,高碑店路,低层,5.60元/平米/月,商品房住宅,0.70,50户,50%,2006年,1：1,"江苏日月照明电器有限公司,上海佳质印刷器材有限公司",鸿铭物业公司,116.53312163303363,39.901250943739136
双井北里小区,67538,朝阳 双井,百子湾南二路,小高层,1.50元/平米/月,商品房住宅,1.90,800户,30%,1984年,150元/车位/月,暂未获知,北京城建物业管理有限责任公司,116.47103083627601,39.90332177694961
新华街一里,54759,丰台 看丹桥,新华街29号,多层,0.50元/平米/月,商品房住宅,1.98,4560户,20%,1993年,充足,京铁建工集团北京有限公司,北京铁路分局第一物业管理处,116.30068444377449,39.85155985306312
宝星华庭,72863,朝阳 望京,阜通西大街,小高层|高层,3.50元/平米/月,商品房住宅,2.28,353户,45%,2008年,1:1.33、共484个(地下)、出租地下一层800一个母子车位1500 地下600一个,"上海芝阁信息科技服务有限公司,上海窗钩厂",北京市均豪物业管理股份有限公司,116.4873961660568,40.005141299756914
南彩河北村小区,15666,顺义 顺义城区,顺平路,多层,1.50元/平米/月,小产权房,0.00,1236户,60%,2000年,车位充足,天河房地产开发有限公司,诚诚物业,116.66900210846455,40.12275919859619
杨庄北街19号院,43355,通州 通州北苑,杨庄北街19号,多层,0.30元/平米/月,商品房住宅,1.62,暂无数据,20%,2000年,暂无数据,通州区住房和城乡建设委员会,北京通运达物业管理有限公司,116.64097353028136,39.90915994628802
西大望路12号院,63205,朝阳 大望路,西大望路12号,多层,1.50元/平米/月,商品房住宅,1.87,暂无数据,40%,2000年,600地下,康景物业管理集团物业管理公司,康景物业管理集团物业管理公司,116.48533572270856,39.91161938917987
玉桥西路37号院,46709,通州 玉桥,玉桥西路37号,多层,0.60元/平米/月,商品房住宅,0.00,暂无数据,暂无数据,暂无数据,暂无数据,北京通州房地产开发有限责任公司,北京艺苑物业管理中心,116.67685814048845,39.900552181191806
中弘北京像素南区,45454,朝阳 常营,五里桥二街2号,高层,2.10元/平米/月,办公,0.00,暂无数据,40%,2009年,暂无数据,北京中弘投资有限公司,北京中弘文昌物业管理有限公司,116.62440778854129,39.93248845173747
胜利小区,41383,顺义 胜利,顺义区中山东街,多层,1.20元/平米/月,商品房住宅,1.30,1866户,40%,1988年,小区年代比较老了，停车不需要交费，楼下有停车线，也比较多，所以停车还是比较方便的。,大龙地产开发有限公司,顺义房管所,116.6608240159492,40.14214108354894
翡翠公园,71139,昌平 北七家,"七星路,近北清路",高层,4.45元/平米/月,商品房住宅,1.69,暂无数据,30%,暂无数据,暂无数据,北京昌业房地产开发有限公司,万科物业,116.43538589397899,40.11265657591426
南小园,48951,通州 玉桥,玉带河大街26号,多层,0.60元/平米/月,商品房住宅,1.70,暂无数据,30%,1989年,车位充足,通州区住房和城乡建设委员会,北京通州兴华物业管理公司,116.59143773056132,39.80891510434741
南沙滩小区,74900,朝阳 南沙滩,大屯路,高层,1.50元/平米/月,商品房住宅,2.80,5400户,30%,1981年,部分停车免费，部分收费，无产权车位，全部为租赁车位,三建，五建，工美,北京长捷物业公司,116.3840439612006,40.00649505910196
金泰丽富嘉园(30号院),44444,朝阳 东坝,东坝中路30号,高层,1.98元/平米/月,商品房住宅,0.00,暂无数据,暂无数据,暂无数据,暂无数据,北京丽富房地产开发有限公司,北京东翔众合物业管理有限责任公司,116.55459935975023,39.96213645614469
泷悦长安,60172,门头沟 永定,白庄子路7号,多层,7.68元/平米/月,商品房住宅,2.20,暂无数据,32%,暂无数据,暂无数据,中电建西元（北京）房地产开发有限公司,北京中水电物业管理有限公司,116.1532760129786,39.90378706391587
华远铭悦,58331,通州 土桥,砖厂南里22号,小高层,2.40元/平米/月,商品房住宅,2.20,1200户,30%,2002年,799个(1:0.7),北京华和房地产开发有限公司,北京圣瑞物业服务有限公司铭悦分公司,116.70360895993117,39.877796064468754
呼家楼北里,72573,朝阳 呼家楼,朝阳北路,多层,0.50元/平米/月,商品房住宅,2.00,暂无数据,20%,2015年,充足,"阿克苏若贝尔,古驰贸易有限公司",北京旭芳鑫物业管理中心,116.4745443786172,39.92738563020564
金隅国际,68147,朝阳 花家地,望京西路48号,高层,3.12元/平米/月,商品房住宅,3.00,952户,30%,2004年,200个地上车位，700个地下车位,"上海塘头建材有限公司,中企物业管理有限公司",北京南湖物业管理中心,116.46511405720399,39.99160518932189
华业东方玫瑰,54788,通州 梨园,"梨园南街,近临河里路",高层,2.50元/平米/月,商品房住宅,3.12,7300户,35%,2006年,规划机动车停车位数量5800个，其中地上约1000个，地下约4800个。住宅的机动车车位配比为1：0.7。,北京君合百年房地产开发有限公司,深圳华业物业管理公司,116.6915560355816,39.885909106734324
前毛家湾小区,121126,西城 西四,西四北大街,多层,0.50元/平米/月,商品房住宅,1.90,暂无数据,20%,1978年,停车位充足,暂无数据,业主自管,116.38154128204981,39.93525935652949
建茗苑,57303,丰台 丽泽桥,三路居路,高层,1.80元/平米/月,商品房住宅,0.00,暂无数据,暂无数据,暂无数据,暂无数据,暂无数据,北京鸿艺展物业公司,116.33985073558587,39.87690021452354
郝庄家园(东区),30894,昌平 昌平县城,南北庄路,多层,0.50元/平米/月,商品房住宅,1.50,2000户,30%,2001年,地上停车位,上海蝉只翼实业有限公司,北京南方物业管理公司,116.21795796224124,40.22206932813197
老环保局宿舍,44798,昌平 昌平县城,斗母宫胡同甲1号,多层,1.20元/平米/月,商品房住宅,0.00,暂无数据,暂无数据,暂无数据,暂无数据,暂无数据,昌平区八街社区居委会,116.23384000365766,40.232989051884346
京棉新城,57112,朝阳 十里堡,朝阳路,高层,1.35元/平米/月,商品房住宅,2.80,1130户,35%,2005年,车位充足，地下停车场暂时尚未实用，现在实用地上停车！地上停车位150元/月,上海仰宏物业管理有限公司,亿鑫物业有限公司,116.51301745615129,39.92366917208881
关东店北街小区,84073,朝阳 东大桥,关东店北街,多层|高层,0.95元/平米/月,商品房住宅,1.60,暂无数据,30%,1980年,暂无数据,北京万置房地产开发有限公司,第一太平戴维斯物业顾问(北京)有限公司,116.4662090017901,39.92827907700174
远大园六区,94150,海淀 世纪城,板井路,高层,1.25元/平米/月,商品房住宅,3.10,暂无数据,35%,2000年,暂无数据,北京金源鸿大房地产开发有限公司,北京世纪颐和物业管理有限责任公司,116.292871521432,39.957392036389784
定福庄南里3号院,52861,朝阳 定福庄,建国路,多层,0.60元/平米/月,商品房住宅,2.20,暂无数据,20%,1980年,150元/月,暂无数据,业主自管,116.56740814799998,39.91707791225474
富力丹麦小镇(别墅),36693,大兴 庞各庄,"隆平大街,近瓜乡路",低层,3.00元/平米/月,商品房住宅,0.30,756户,34%,2003年,暂无数据,北京富力城房地产开发有限公司,北京恒富物业服务有限公司,116.31582996450327,39.63369209971177
茉藜园,54771,朝阳 北苑,春华路,高层,1.38元/平米/月,商品房住宅,3.00,3522户,18%,2004年,地上：150元/车位/月、地下：300元/车位/月,上海显贵物业管理有限公司,城建城承物业管理公司,116.4305310018503,40.04557204907456
千禧家园,21608,房山 阎村,阎东路,多层,0.62元/平米/月,商品房住宅,0.97,1260户,38%,2008年,100元/月，车位充足,北京市鸿翔房地产开发有限公司,北京鸿翔房地产开发有限公司,116.07742632961589,39.73509992030528
城角西路甲6号院,35294,昌平 昌平县城,城角西路甲6号,多层,0.00元/平米/月,单位集体自建房,0.00,暂无数据,暂无数据,暂无数据,暂无数据,暂无数据,暂无数据,116.23008589510091,40.223051642941385
北京城建胜茂傲山,40882,房山 良乡,房山区良乡民丰东街6号,高层,3.95元/平米/月,商品房住宅,2.50,138户,42%,2016年,暂无数据,上海远洋运输有限公司,北京市均豪物业管理股份有限公司,116.14559002120467,39.75077606002874
官悦欣园(B区),43157,朝阳 百子湾,官庄北街,高层,0.00元/平米/月,动迁配套房,2.57,暂无数据,30%,2014年,2800,住总房地产开发有限责任公司,北京官庄物业,116.50742074333246,39.88745735702564
南礼士路甲1号院,102836,西城 南礼士路,南礼士路甲1号,多层,0.50元/平米/月,商品房住宅,1.30,2300户,30%,1974年,停车位充足,暂无数据,业主自管,116.3587458814286,39.92778525509774
园景西区,48467,通州 梨园,云景东路15号,高层,1.72元/平米/月,商品房住宅,0.00,暂无数据,暂无数据,2000年,暂无数据,北京住总集团有限责任公司,北京金世界物业管理公司,116.67226052305782,39.887504900181014
金都杭城(东区),77646,朝阳 百子湾,百子湾路,高层,2.80元/平米/月,商品房住宅,0.00,暂无数据,30%,2005年,暂无数据,北京浙金都房地产开发有限公司,浙江金都物业管理有限公司,116.50714298726878,39.90623410958942
新街口西里(一区),118124,西城 新街口,东教场胡同,多层,0.60元/平米/月,商品房住宅,1.30,688户,30%,1985年,150/车位/月，小区内停车不要钱,北京城市建设开发集团总公司,北京天恒瑞海物业管理有限责任公司,116.37344799855765,39.9511120657712
钻石空间,19444,通州 马驹桥,中心三路,多层,0.00元/平米/月,小产权房,0.00,暂无数据,暂无数据,-1年,暂无数据,暂无数据,北京市马桥胜利物业管理有限公司,116.54956285989151,39.76088960007187
嘉德公寓,64354,海淀 永定路,复兴路甲38号,高层,2.60元/平米/月,商品房住宅,2.50,暂无数据,30%,2015年,暂无数据,北京嘉德房地产开发公司,北京嘉瑞物业管理有限公司,116.2675376891007,39.91293343999877
万芳园一区(万年花城二期),68826,丰台 玉泉营,丰台东路,多层|小高层|高层,1.78元/平米/月,商品房住宅,3.70,暂无数据,31%,2008年,地上150/地下200,北京城市建设开发集团总公司,北京兴邦物业管理有限公司,116.32548297585238,39.852767051320996
迎喜家园,43882,通州 土桥,玉桥中路,多层,2.00元/平米/月,商品房住宅,1.20,1200户,30%,2001年,200个,北京子轶房地产开发有限公司,北京求实信物业管理有限公司,116.69392405873646,39.88028245790498
顺兴街十七号院,35732,顺义 马坡,顺兴街,高层,0.00元/平米/月,商品房住宅,0.00,暂无数据,暂无数据,暂无数据,暂无数据,暂无数据,暂无数据,116.65511321833061,40.18964281919248
建安里小区,38043,昌平 昌平县城,府学路,多层,0.65元/平米/月,商品房住宅,1.80,330户,30%,1995年,充足,北京天湖房产,北京肆维基业物业管理有限公司,116.26108596909751,40.22867263145121
光华路小区,63333,朝阳 国贸,光华路北2号,多层,0.50元/平米/月,商品房住宅,2.10,633户,20%,1990年,1:1,北京住总房地产开发有限公司,业主自管,116.47418209200502,39.920108905976825
荣鹏花园,27901,房山 良乡,房山区良乡拱辰南大街44号,高层,1.00元/平米/月,商品房住宅,3.10,暂无数据,36%,2004年,充足,北京荣鹏房地产公司,小区物业,116.14937260604609,39.731736004134184
太平里,75250,西城 马连道,北京西站南路,多层|小高层|高层,1.50元/平米/月,商品房住宅,1.60,暂无数据,30%,2001年,地上停车,"阿克苏若贝尔,古驰贸易有限公司",街道办事处代管物业,116.3282886534517,39.898399779847914
府前东街小区,33542,怀柔 怀柔城区,府前东街,多层|高层,0.88元/平米/月,商品房住宅,0.00,暂无数据,25%,1998年,车位充足,无,居民自管委,116.648327867661,40.32219202666467
绿地诺亚方舟,25138,房山 良乡,卓秀北街10号,高层,6.00元/平米/月,办公,3.00,暂无数据,30%,2016年,暂无数据,上海嘉里建设管理有限公司,北京绿地京城商业管理有限公司,116.18833121770831,39.73576326484593
北京颐泉汇,77238,海淀 上地,上地东路35号,多层,0.00元/平米/月,商业,0.00,暂无数据,37%,2015年,暂无数据,暂无数据,业主自管,116.32063068880969,40.041812559366456
鹿海园一里,44496,大兴 亦庄,泰河路,多层,0.55元/平米/月,商品房住宅,0.00,暂无数据,暂无数据,2003年,暂无数据,升九润物业管理有限公司,京开物业管理有限公司,116.50714235845493,39.7675239968717
尚峰尚水(商住楼),26887,海淀 温泉,温北路8号,小高层,0.00元/平米/月,办公,0.00,暂无数据,暂无数据,暂无数据,暂无数据,暂无数据,暂无数据,116.14099590716553,40.10187605719139
青云胡同小区,15111,东城 前门,青云胡同,多层,0.50元/平米/月,商品房住宅,0.00,暂无数据,暂无数据,暂无数据,暂无数据,暂无数据,暂无数据,116.4205602598423,39.92860144255692
巩华家园南一村,26506,昌平 沙河,顺沙路8号,高层,1.00元/平米/月,小产权房,0.00,暂无数据,暂无数据,暂无数据,暂无数据,北京昌平房地产开发有限公司,北京东方惠峰物业管理有限公司,116.51063874316085,40.17540955024187
龙华园(西区),48375,昌平 回龙观,回龙观西大街,多层|小高层,0.40元/平米/月,经济适用房,1.50,暂无数据,28%,1998年,暂无数据,天鸿集团|北京宝晟住房股份有限公司,北京天鸿宝地物业管理经营有限公司,116.3287966452176,40.080469743712946
天宫院小区,33561,大兴 生物医药基地,庆丰西路1号,高层,1.61元/平米/月,商品房住宅,2.50,5184户,暂无数据,2012年,暂无数据,"上海创蓝文化传播有限公司,上海斯恳赫科技有限公司",北京天荣创兴物业管理有限公司,116.32956846931177,39.685742545117336
白家疃尚品园,45000,海淀 温泉,温泉路,小高层,0.00元/平米/月,商业,0.00,暂无数据,暂无数据,暂无数据,暂无数据,暂无数据,暂无数据,116.19153709041234,40.05005119616145
富源里,47948,大兴 亦庄,西环北路,多层,0.50元/平米/月,商品房住宅,0.00,1446户,20%,2001年,车位充足，地上车位全免费,东朔物业管理有限公司,富源里物业管理有限公司,116.48325183358651,39.806655095711186
西二旗铭科苑,61036,海淀 西二旗,安宁庄西路29号,多层|高层,0.71元/平米/月,商品房住宅,2.00,暂无数据,31%,1997年,暂无数据,北京安达房地产开发公司,北京东居物业管理有限公司,116.32140368070102,40.05797115299118
北街家园C区,40986,昌平 沙河,"高教园北二街,近京藏高速",小高层,0.80元/平米/月,商品房住宅,0.70,暂无数据,50%,2008年,暂无数据,上海联瑞电子技术有限公司,奥元丽景物业服务有限公司,116.27078470419708,40.171675066739226
国美第一城3号院,61596,朝阳 朝青板块,青年路西里3号,高层,2.12元/平米/月,商品房住宅,3.00,暂无数据,30%,2007年,暂无数据,上海复旦复华商业集团企业管理有限公司,美天物业有限公司,116.52147051100017,39.93969283176998
国仕汇,43797,昌平 龙泽,回南路10号,高层,0.58元/平米/月,商品房住宅,3.00,暂无数据,30%,2012年,每月150元(全是地上停车位),瓦克化学有限公司,深圳长城物业集团股份有限公司北京分公司,116.3205764311569,40.086031637106274
枣营北里,75120,朝阳 朝阳公园,东三环农展馆路,多层,1.00元/平米/月,商品房住宅,1.80,3013户,35%,2015年,地上车位120元/月，年缴1300元。,北京大成房地产开发公司,北京大成宛物业管理公司,116.47988318792409,39.95272596343941
北方明珠,50238,昌平 立水桥,立汤路188号,高层,1.80元/平米/月,商品房住宅,2.00,暂无数据,33%,2001年,暂无数据,北京中联亚房地产开发有限公司,北京中原物业顾问有限公司,116.42022128952547,40.1064118830789
海运仓胡同3号院,116938,东城 东四十条,海运仓胡同3号,多层|高层,0.60元/平米/月,商品房住宅,2.70,3572户,24%,2015年,327个地上固定车位，先到先用，按顺序排位 地下车位在北门仓6号楼地下，每月450元,北京市东城区住宅发展中心,北京市东旭佳业物业管理有限责任公司,116.43429427312327,39.94337141929708
丽景馨居,54415,朝阳 甘露园,朝阳路,高层,1.64元/平米/月,商品房住宅,2.20,704户,35%,2000年,出租150元/月,徐悲鸿艺术中心,北京文宝物业有限公司,116.52544578237348,39.92173654456947
甘露园南里二社区(甘露园南里二区),58648,朝阳 甘露园,朝阳路,多层,0.50元/平米/月,商品房住宅,0.00,2237户,30%,1995年,地上：150元/月,北京通衢房地产开发有限责任公司,北京岳安物业管理有限责任公司,116.52293951000064,39.91881062682869
南湖东园(二区),75819,朝阳 望京,湖光北街,多层,2.80元/平米/月,商品房住宅,1.80,5739户,18%,2000年,地上每月150元,"阿克苏若贝尔,古驰贸易有限公司",望京实业物业公司,116.47225226227793,40.00552533742142
甘家口小区,98294,海淀 甘家口,甘百路,多层,1.75元/平米/月,商品房住宅,1.50,1976户,10%,1996年,充足,英达物业管理有限公司,北京羲和物业管理中心,116.33607175205125,39.93109330917282
百环家园,58864,朝阳 双井,广渠路66号,高层,1.70元/平米/月,商品房住宅经济适用房,2.90,5000户,30%,2005年,"地面小型汽车1/2h，大型汽车2/2h,车位150/月，地下小型汽车2/h，大型汽车4/h，车位350/月",均和集团,北京瑞发物业管理有限公司,116.47143902629975,39.896423048360454
上地东里,121139,海淀 上地,信息路,多层,0.80元/平米/月,商品房住宅,0.00,3750户,30%,1993年,地上停车位，1200元/年，没有固定车位,"上海回声网络科技有限公司,上海五色花贸易有限公司,上海云伊信息技术有限公司",北京实创上地物业管理服务有限责任公司,116.3211091263243,40.03839500537389
博雅园,81660,朝阳 朝阳公园,农展馆南路8号,小高层|高层,3.49元/平米/月,商品房住宅,2.80,450户,40%,2000年,450个停车，700元/月地下一层，500元/月地下二层,申达八部申达十六部,上海金河制药厂上海树才贸易有限公司,116.47791221580465,39.941261155051535
车站西街17号院,92145,西城 广安门外,车站西街,多层|高层,0.50元/平米/月,商品房住宅经济适用房,1.50,400户,15%,1992年,充足,永和食品（中国）股份有限公司、班晟贸易（上海）有限公司、声舟（上海）贸易有限公司,北京都市阳光物业管理有限公司,116.34667703012234,39.88388210566029
西土城路8号院,107147,海淀 蓟门桥,西土城路8号,多层,1.50元/平米/月,商品房住宅,1.50,1000户,40%,2001年,150元/车位/月,交通部交通科学研究院,业主自管,116.11743667736921,39.662352417622266
北京城建福润四季A区,37333,朝阳 东坝,管庄路,多层|高层,1.20元/平米/月,经济适用房,2.80,3574户,30%,2014年,车位配比：1:0.3，车位合计1247辆，其中地上348辆，地下899辆,"阿克苏若贝尔,古驰贸易有限公司",北京凯泰物业管理有限责任公司,116.58438100179715,39.96408009995007
博雅德园,73767,海淀 西二旗,西二旗中路12号,多层,2.20元/平米/月,商品房住宅,2.00,560户,30%,2000年,小区分为地上车位和地下车位，没有产权车位，地上150元/月。地下300元/月,"上海宝辰物业管理有限公司,艾瑞克私教工作室",北京市均豪物业管理股份有限公司,116.32097743473653,40.06365023843113
西山奥园,43333,石景山 苹果园,刘娘府路,多层,1.75元/平米/月,商品房住宅,1.80,暂无数据,暂无数据,2013年,暂无数据,北京奥宸房地产开发有限公司,北京首欣物业管理有限责任公司,116.18465508206982,39.943062261872925
延静西里,68588,朝阳 大望路,朝阳北路,多层,1.95元/平米/月,商品房住宅,0.00,暂无数据,30%,2001年,暂无数据,北京住总房地产开发有限公司,北京恒安物业管理公司,116.48983272992206,39.92586747682618
城华园,75348,海淀 学院路,学清路21号,高层,1.30元/平米/月,商品房住宅,3.50,960户,35%,1998年,地上160元/月，共有200个停车位，相对于来说，停车位方面稍微紧张，但是外面也可以停车，非常方便，并且不受费用。,"快板电子科技有限公司,上海久誉软件系统有限公司",北京鹏翔物业管理有限公司,116.35724885529623,40.01744952477013
建欣苑三里南区,68917,丰台 大红门,建欣路,多层,0.55元/平米/月,商品房住宅,3.00,暂无数据,40%,1997年,暂无数据,"上海塘头建材有限公司,中企物业管理有限公司",北京建苑居管理中心,116.40462638619798,39.846036449031914
公园1872,92328,朝阳 十里堡,石佛营路,高层,5.48元/平米/月,商品房住宅,2.60,1502户,34%,2007年,全区2170个，公寓车位比1:1.2 总数：2070个 比例：5:207 地上车位：50个 地下车位：2020个,招商局地产（北京）有限公司,北京招商局物业管理有限公司,116.50400727222511,39.93189272044746
光熙门北里,75126,朝阳 西坝河,北三环东路,高层,0.80元/平米/月,商品房住宅,4.00,2132户,15%,2010年,小车150元，大车210元,"上海交通投资(集团)有限公司,上海佳绿绿化有限公司",北宇物业管理有限公司,116.44140804428731,39.971730051149855
南湖渠西里,74990,朝阳 望京,望京西路,多层,0.60元/平米/月,商品房住宅,1.20,1500户,30%,1988年,地上150元/车位/月,新兴开放地产,北京恒安物业管理有限公司,116.4626161390724,39.997906836443704
东会新村,48492,朝阳 管庄,双桥东路1号,多层,0.50元/平米/月,商品房住宅经济适用房,2.20,540户,30%,1998年,150元/月,UTOP联创空间、上海亚龙烟草机械有限公司、上海亚龙投资集团有限公司,北京顺长物业管理中心,116.61311474082262,39.899541868252776
达富苑小区,45266,通州 果园,北苑南路48号,多层,0.60元/平米/月,商品房住宅,1.62,821户,30%,1999年,都是地上停车，小车150元/月，1600元/年，大车/210元/月，2300元/年,通州区住房和城乡建设委员会,北京新华敬业物业管理有限公,116.65647397151713,39.90049504694004
紫金新园(二区),27507,门头沟 永定,龙林路,高层,0.00元/平米/月,动迁配套房,0.00,暂无数据,暂无数据,暂无数据,暂无数据,暂无数据,暂无数据,116.15911928101582,39.89525798414529
燕化星城健德一里,27180,房山 阎村,紫燕中路,多层,0.50元/平米/月,商品房住宅,0.00,暂无数据,30%,1994年,暂无数据,华润置地北京股份有限公司,华润置地北京物业,116.07309299366631,39.718929704853146
安苑北里,78882,朝阳 惠新西街,安定路,多层|高层,0.80元/平米/月,商品房住宅,2.71,2780户,30%,1986年,地上车位、150元/月,"上海永腾投资管理有限公司,上海电音马兰士贸易有限公司",北京北辰信诚物业管理有限责任公司,116.41559694223858,39.991513979968936
风林绿洲,95964,朝阳 南沙滩,大屯路,高层,2.92元/平米/月,商品房住宅,3.50,2028户,37%,2015年,地下车位500元/月,瑞创物业管理有限公司,达文（中澳）物业管理有限公司,116.39001365046715,40.006759438318355
宏城花园,41778,顺义 石门,顺于路,多层,0.55元/平米/月,商品房住宅,1.40,1256户,20%,2006年,地上200个，地下100个,北京建升房地产开发有限公司,北京市建升物业管理有限责任公司,116.64449497771102,40.136939042191514
怡馨家园,47463,顺义 顺义城区,新顺南大街26号,多层|小高层|高层,1.38元/平米/月,商品房住宅,3.00,5000户,35%,2003年,地上120元/月，地下130元/月，人车分流,酷泽置业有限公司,北京碧辉苑物业管理有限公司,116.65454351297619,40.126016689846914
东恒时代(三期),68200,朝阳 四惠,十里堡甲3号,小高层|高层,2.80元/平米/月,商品房住宅经济适用房,2.90,1100户,32%,2006年,地上车位500个，租价200元/月；地下车位400个，售价8万元/个,上海叶佳具物业有限公司,北京华泰龙安物业管理有限责任公司,116.50884940841553,39.918143043401486
汇丰家园,55980,丰台 玉泉营,丰台东路,多层|高层,0.90元/平米/月,商品房住宅,1.56,400户,35%,2003年,停车位200多个,万宝商务公司,北京市安泰祥物业管理中心,116.31933928480855,39.85633527546129
神龙潼关三区,20202,通州 马驹桥,t马路,小高层,0.65元/平米/月,小产权房,1.50,1600户,10%,2006年,车位充足,上海绿地星奕房地产开发有限公司,北京神龙童关物业管理有限公司,116.55092037917818,39.76008471255157
朗峰嘉园,78671,通州 通州北苑,杨庄北里17号,多层,3.80元/平米/月,商品房住宅,0.00,暂无数据,暂无数据,暂无数据,暂无数据,北京祈连房地产开发有限公司,北京绿城物业管理有限公司,116.63910029380139,39.90944974884599
上东10号,47066,朝阳 姚家园,东风南路,多层,1.50元/平米/月,小产权房,0.00,暂无数据,45%,暂无数据,暂无数据,SOHO中国,北京燕京都物业管理有限公司,116.51372192799323,39.95688482992188
首开畅心园,46711,朝阳 常营,五里桥一街3号,高层,1.60元/平米/月,商品房住宅,0.00,1829户,30%,2010年,车位充足,上海叶达贸易发展有限公司,北京市嘉宝物业管理有限公司,116.6159859048936,39.93286951231318
武圣东里,58276,朝阳 潘家园,松榆北路,多层|高层,0.68元/平米/月,商品房住宅,1.70,2600户,20%,1962年,150元/车位/月,北京宏宇房地产开发有限责任公司,武圣东里居委会,116.47644600155127,39.88357005529952
芍药居北里小区,84288,朝阳 芍药居,北四环东路,多层|高层,1.00元/平米/月,商品房住宅,2.29,1100户,30%,1999年,地下停车位300元/月。地上停车位150元/月。,信南物业管理有限公司,北京东屿物业管理有限责任公司,116.4926317600606,40.02746782439922
宫门口社区,153846,西城 官园,阜成门内大街,多层,0.60元/平米/月,商品房住宅,0.00,暂无数据,暂无数据,暂无数据,暂无数据,暂无数据,单位自管物业,116.36793491798183,39.932072533089396
车公庄西路22号院,98248,海淀 甘家口,车公庄西路22号,多层|高层,2.60元/平米/月,商品房住宅,2.40,暂无数据,30%,2005年,充足,时尚生活策划咨询（上海）有限公司,北京城建物业管理有限责任公司,116.3269150544964,39.937148240060935
宝星国际,77974,朝阳 望京,阜安西路,高层,2.60元/平米/月,商品房住宅,2.55,1225户,45%,2006年,车位充足，1：1以上，月租金400-450元/月,"上海德卓商贸有限公司,玫琳凯",北京市均豪物业管理股份有限公司,116.48754151188831,40.00677539637233
盛德紫阙,106285,东城 安定门,安定门外大街86号,高层,8.00元/平米/月,商品房住宅,2.50,5000户,17%,2014年,充足,北京杰宝房地产开发有限责任公司,北京盛德恒通物业服务有限公司,116.41546596929523,39.96487905364154
环保嘉苑,32661,海淀 温泉,地锦路,多层,0.00元/平米/月,商品房住宅,暂无数据,暂无数据,暂无数据,暂无数据,暂无数据,中国铁建房地产集团有限公司,北京铁建物业管理有限公司,116.17736479387307,40.063146496268196
育新花园,79706,海淀 西三旗,西三旗东路,高层,1.00元/平米/月,商品房住宅,2.82,5000户,44%,1996年,150元/月，1500元/年,上海建廷物业管理有限公司,北京育新花园物业管理公司,116.35182201204934,40.06274904947312
刘海胡同,165000,西城 什刹海,刘海胡同,多层,1.20元/平米/月,商品房住宅,0.80,1056户,25%,1990年,地上停车,暂无数据,暂无数据,116.38794478909799,39.944412384240394
碧桐园,66768,海淀 四季青,田村路,多层,2.29元/平米/月,商品房住宅,1.60,800户,30%,2008年,地上150元一月 地下车库300元一月,上海安亭经济发展中心,国贸物业酒店管理有限公司,116.23059828856381,39.93605353216656
悠唐麒麟公馆,118235,朝阳 朝外大街,"三丰路,近外交部南街",高层,6.80元/平米/月,商品房住宅,5.50,418户,30%,2008年,1627个,北京兆泰置地（集团）股份有限公司,丰汇物业管理有限公司,116.44573751752321,39.92704444634545
蓝光海悦城,37089,房山 良乡,"京周路,近翠柳西街",高层,5.00元/平米/月,商品房住宅,2.00,854户,30%,2016年,1040个停车位,星华蓝光置业,北京蓝光嘉宝物业管理有限公司,116.12519597087274,39.73244411949899
劲松北社区一区西小院(劲松一区),61854,朝阳 劲松,劲松路,多层,0.50元/平米/月,商品房住宅,2.00,3684户,33%,1977年,暂无数据,"阿克苏若贝尔,古驰贸易有限公司",劲松物业,116.4780842413098,39.887337149510756
花家地北里,74904,朝阳 花家地,花家地街,多层,0.70元/平米/月,商品房住宅经济适用房动迁配套房,1.00,3400户,30%,1998年,停车免费,北京建材集团房地产开发公司,北京华安物业管理有限责任公司,116.47269395909719,39.99185705087487
保利嘉园3号院,54716,朝阳 常营,常营中路3号,小高层|高层,1.90元/平米/月,商品房住宅,2.47,4199户,35%,2010年,200/位・月,庆扬贸易有限公司,保利物业管理(北京)有限公司,116.61216388444029,39.93660524502227
通惠苑,45831,通州 通州北苑,北苑42号,多层|高层,0.60元/平米/月,商品房住宅,1.20,700户,30%,2006年,充足,北京海文房地产开发有限公司,北京慧竹广羽物业管理有限公司,116.64599514791269,39.91536929578741
望京西园二区,63585,朝阳 望京,宏昌路,高层,1.20元/平米/月,商品房住宅,2.50,暂无数据,25%,1999年,全是地上停车，地上150元/月,北京高校房地产开发总公司,北京燕晨物业管理中心,116.47823219222731,40.01023606370079
车站北里,43384,大兴 黄村,兴政街路,多层,0.60元/平米/月,商品房住宅,1.20,2454户,30%,1995年,地上车位150元/车位・月,"富兴园置业发展有限公司,上海绿化有限公司",北京万科物业服务有限公司,116.34094928147879,39.73152361664864
国瑞城(东区),101919,东城 崇文门,国瑞东路26号,高层,1.10元/平米/月,商品房住宅,2.50,暂无数据,50%,2004年,地下车库，停车位比例1：1,浩乙物业管理有限公司,北京国瑞物业管理有限公司,116.43243576885367,39.90418703519199
高家园新区,0,门头沟 龙泉,育园路,高层,0.00元/平米/月,小产权房,0.00,暂无数据,暂无数据,暂无数据,暂无数据,暂无数据,暂无数据,116.10719024540019,39.93679230633527
龙兴园北区,43931,昌平 龙泽,二拨子路13号,多层,1.00元/平米/月,商品房住宅,0.00,2000户,20%,1999年,地上车位150元/车位/月,"上海芝阁信息科技服务有限公司,上海窗钩厂",北京天宇流星物业管理公司,116.3089776002426,40.083542428666384
灵通观,71299,朝阳 建外大街,永安里中街,多层,0.80元/平米/月,商品房住宅单位集体自建房,2.00,1000户,30%,1993年,1：1.1,北京天湖房产,北京建国物业,116.45306858879015,39.91090088768393
朱辛庄北区,25892,昌平 沙河,朱辛庄东路,多层,0.50元/平米/月,小产权房,0.00,暂无数据,暂无数据,暂无数据,暂无数据,暂无数据,北京亿鑫物业管理公司,116.31708031594259,40.106392999598164
西局玉园(北区),65109,丰台 丽泽桥,西局南街139号,高层,0.00元/平米/月,商品房住宅,0.00,1500户,42%,1998年,600个,北京宏基源房地产开发有限公司,北京龙湖物业服务有限公司,116.30805791506148,39.876375296635665
北人家园,54320,通州 新华大街,新华东街48号,高层,0.00元/平米/月,单位集体自建房,0.00,暂无数据,暂无数据,暂无数据,暂无数据,暂无数据,暂无数据,116.68189404117737,39.9075480569904
北花园小区(2号院),21616,朝阳 高碑店,北花园中路,高层,0.00元/平米/月,动迁配套房,0.00,暂无数据,暂无数据,2013年,暂无数据,暂无数据,居民自理,116.55897485587231,39.9116811663946
方舟苑,69082,朝阳 花家地,北四环东路甲9号,高层,1.65元/平米/月,商品房住宅,3.00,2118户,30%,1998年,每2户1个车位，出租150元/月，方舟苑一二期还有三期的8号楼是地上固定停车位，已月租形式缴纳，三期9、10号楼为城市月光是地下停车，可直接入户，月租为350元月。,北京方舟苑房地产发展有限公司,北京方舟物业管理有限公司,116.47226142499413,39.985653798118754
东洲家园,55000,朝阳 来广营,来广营北路,高层,0元/平米/月,商品房住宅,暂无数据,暂无数据,暂无数据,暂无数据,暂无数据,暂无数据,暂无数据,116.46852106051168,40.051553591280616
东潞苑,40939,通州 北关环岛,焦刘路,多层,2.10元/平米/月,商品房住宅,0.93,572户,25%,1995年,地上150元/月,北京东安恒新房地产开发有限公司,北京中咨现代物业管理公司,116.68541414114878,39.94131357016866
天通苑西三区,36955,昌平 天通苑,立汤路,多层|高层,1.25元/平米/月,经济适用房,3.50,2600户,30%,2015年,地上150/月，地下车库180元,北京顺天通房地产开发有限公司,北京顺天通物业管理公司,116.41350901074175,40.10863904478827
金隅泰和园,43592,朝阳 朝青板块,高井北街7号,高层,0.50元/平米/月,经济适用房,2.80,2483户,暂无数据,2014年,地上：382 地下：383,"上海塘头建材有限公司,中企物业管理有限公司",-,116.53798208491799,39.92659951456461
翠林二里,56937,丰台 右安门,开阳路,多层|高层,1.00元/平米/月,商品房住宅,2.60,暂无数据,30%,1996年,150元/车位/月,"阿克苏若贝尔,古驰贸易有限公司",无,116.37671783061397,39.86542427659637
溪山嘉园东府里,44062,海淀 四季青,旱河路131号,多层,0.00元/平米/月,动迁配套房,2.12,1000户,42%,2004年,私家车库，免费地上车位2个/户,北京三九建业房地产开发有限公司,管理顾问为世邦魏理仕国际物业管理顾问公司,116.24592391954732,39.96201582769754
中景濠庭,95535,东城 安定门,安德路12号,高层,3.50元/平米/月,商品房住宅,5.00,110户,30%,2001年,1：1.8，地下：700-900元/月,北京千禧福临房地产开发有限公司,北京中景濠庭物业管理有限责任公司,116.40525654751323,39.95712165737935
易构空间,66576,朝阳 双井,百子湾路甲16号,多层,2.20元/平米/月,商品房住宅,0.00,暂无数据,50%,2003年,暂无数据,暂无数据,北京太平洋物业管理公司,116.48892463288202,39.90565627463675
长安新城(二区),59303,丰台 青塔,大成路,多层|高层,1.60元/平米/月,商品房住宅,1.20,暂无数据,30%,2001年,暂无数据,"东方海外货柜航运(中国)有限公司,乔达国际货运(上海)有限公司,上海市国际展览有限公司,大日精化(上海)贸易有限公司,上海凯璞庭资产管理有限公司,上海金丰投资有限公司,虹软（上海）多媒体科技有限公司",北京金隅大成物业管理有限公司,116.26844776241288,39.89538767702053
锋尚国际公寓,145463,海淀 万柳,万柳中路19号,小高层|高层,2.80元/平米/月,商品房住宅,3.00,暂无数据,63%,2002年,暂无数据,上海安亭经济发展中心,锋尚物业管理有限公司,116.30623381589292,39.96806841507795
团结湖中路南一二条,72386,朝阳 团结湖,团结湖南路,多层,0.00元/平米/月,商品房住宅,0.00,暂无数据,暂无数据,暂无数据,暂无数据,暂无数据,居民自理,116.47203496217506,39.937152043500426
西西庄园,32226,通州 果园,通朝大街,小高层,0.98元/平米/月,商品房住宅,2.10,暂无数据,31%,2010年,充足,庆扬贸易有限公司,百万庄物业管理有限公司,116.65171717435015,39.898886965307206
康泽园,56646,丰台 石榴庄,南顶路,多层|高层,0.90元/平米/月,商品房住宅,2.00,1418户,20%,2000年,地面车位150元/月,北京首都开发股份有限公司,万胜全物业管理中心,116.41689418522554,39.84741727279092
机械科学研究总院东家属区,93399,海淀 紫竹桥,首体南路9号,多层,0.70元/平米/月,商品房住宅单位集体自建房,0.00,暂无数据,30%,1989年,暂无数据,北京房地产开发公司,业主自管,116.33349514235698,39.9413639799199
白盆窑天兴家园,52216,丰台 科技园区,樊羊路,多层,1.80元/平米/月,商品房住宅,0.00,暂无数据,暂无数据,2012年,暂无数据,暂无数据,暂无数据,116.31793235871882,39.82916183895063
时代国际嘉园,85296,朝阳 双井,东柏街10号,高层,2.80元/平米/月,商品房住宅,2.60,1000户,31%,2006年,地面车位150元/月，地下一层550元/月，地下二层500元/月,上海新轻物业管理公司,北京恒信嘉业物业管理有限公司,116.47173151457379,39.90050584069881
慈云寺小区,69916,朝阳 红庙,大望路慈云寺46号,高层,2.80元/平米/月,商品房住宅,3.60,2400户,36%,2003年,1800,北京三能达置业有限公司,香港侨乐物业管理集团,116.49254399561227,39.9199396448187
八里庄路62号院,89492,海淀 定慧寺,八里庄路62号,小高层,1.50元/平米/月,商品房住宅,2.50,暂无数据,32%,2000年,暂无数据,北京京华都房地产开发有限公司,北京正源和美物业服务有限公司,116.2841292122089,39.93461005364558
新光大中心,30000,通州 北关,永顺南街,高层,5.20元/平米/月,办公,9.10,暂无数据,3%,暂无数据,暂无数据,北京华恒兴业房地产开发有限公司,第一太平戴维斯物业顾问(北京)有限公司,116.66613398964923,39.921992054901544
中间建筑,48192,海淀 香山,杏石口路50号,低层,0.00元/平米/月,办公,0.00,暂无数据,暂无数据,暂无数据,暂无数据,暂无数据,暂无数据,116.23950696396736,39.9599810803498
三里屯SOHO公寓,77009,朝阳 三里屯,工人体育场北路8号,多层|高层,7.00元/平米/月,商品房住宅,2.17,658户,30%,2015年,三里屯soho车位充足，目前租金适中，地下2层1200元/车位/月，地下3层1100元/车位/月,SOHO中国有限公司,港铁（北京）房地产管理有限公司,116.4600540819274,39.938062580782635
西坝河东里,72877,朝阳 西坝河,北三环东路,高层,0.80元/平米/月,商品房住宅,2.50,2000户,30%,1990年,地上车位500个、小区总户数4494户。,上海豪景物业管理有限公司,亿方物业管理有限责任公司,116.45150598635554,39.972611095259175
保利大都汇,70000,通州 北关,新华北路,高层,0.00元/平米/月,办公,3.93,暂无数据,30%,暂无数据,暂无数据,通州区住房和城乡建设委员会,保利物业管理(北京)有限公司,116.66427898877112,39.920903051288256
翠竹新村,26000,顺义 天竺,花园西街,多层|小高层|高层,1.50元/平米/月,商品房住宅,3.10,暂无数据,40%,2000年,暂无数据,天竺房地产,天竺翠竹新村物业,116.57027697647665,40.06115309552208
前泥洼小区(一区),62396,丰台 丰益桥,丰管路,多层,0.50元/平米/月,商品房住宅,1.00,暂无数据,30%,2015年,充足,上海展盈物业管理有限公司,北京方庄物业管理有限责任公司,116.31027502289066,39.86230209213439
龙兴园南区,44705,昌平 回龙观,昌平路397号,多层,1.00元/平米/月,商品房住宅,1.60,970户,20%,2001年,地上车位150元/月,"上海芝阁信息科技服务有限公司,上海窗钩厂",北京天宇流星物业管理公司,116.38753802648172,39.98243728295519
复兴路79号院,79020,海淀 五棵松,复兴路79号,多层|高层,1.00元/平米/月,商品房住宅,2.60,256户,20%,1998年,停车免费,航天部,业主自管,116.27714910890471,39.91451718508861
空港新苑6号院,17527,大兴 大兴周边,知新巷,高层,0.00元/平米/月,动迁配套房,0.00,暂无数据,暂无数据,暂无数据,暂无数据,暂无数据,暂无数据,116.31105600970103,39.51948709260877
农印家属院,47442,通州 通州北苑,北苑南路26号,多层,0.56元/平米/月,商品房住宅,0.00,72户,30%,2000年,暂无数据,北京联成房地产开发公司,小区物业,116.64850213892993,39.90526821198358
富力又一城(B区),53745,朝阳 豆各庄,大鲁店北路,高层,2.20元/平米/月,商品房住宅,2.60,暂无数据,35%,2004年,暂无数据,北京华恩房地产开发有限公司,北京恒富物业服务有限公司,116.56889026226088,39.85311705518791
银海星月,44899,丰台 卢沟桥,晓月中路,多层,1.00元/平米/月,商品房住宅,1.60,624户,32%,2005年,地上：225个，地下：212个、150元/车位/月,北京银海房地产有限公司,丰润物业管理公司,116.23871232291323,39.851894214849644
南方庄1号院,53262,丰台 方庄,方庄南路1号,小高层|高层,0.80元/平米/月,商品房住宅,2.00,1150户,30%,2000年,暂无数据,上海叶达贸易发展有限公司,北京中原物业顾问有限公司,116.44582506907314,39.85571047205087
加利大厦,52789,朝阳 亚运村,北苑路180号,高层,1.69元/平米/月,商品房住宅,2.50,320户,35%,2005年,每户一位，200元/位・月,"华夏银行上海分行,新时代证券股份有限公司上海分公司",深圳市长城物业管理股份有限公司,116.4223150098255,39.9975369194254
迎曦园,57247,朝阳 石佛营,姚家园路,高层,1.50元/平米/月,商品房住宅,0.00,1500户,35%,1999年,充足，地表车位150-210元/月,"阿克苏若贝尔,古驰贸易有限公司","阿克苏若贝尔,古驰贸易有限公司",116.51314348841433,39.94073057072344
北土城西路167号院,89995,海淀 北太平庄,北土城西路167号,多层|小高层,1.00元/平米/月,商品房住宅,2.00,暂无数据,45%,1985年,暂无数据,"快板电子科技有限公司,上海久誉软件系统有限公司",亿方物业管理有限公司,116.3711601042543,39.98291197170635
芳古园二区,70750,丰台 方庄,滨河路1号,高层,2.05元/平米/月,商品房住宅,2.70,1090户,30%,2004年,地上车位150元/车位/月,北京城市建设房地产开发有限公司,北京方庄物业管理有限责任公司,116.43125878651685,39.95664091807234
金玉府,78764,海淀 田村,阜石路,高层,4.12元/平米/月,商品房住宅,0.72,暂无数据,30%,2015年,暂无数据,"上海塘头建材有限公司,中企物业管理有限公司",北京金隅大成物业管理有限公司,116.23647042185198,39.92635930690585
北坞嘉园,82001,海淀 西山,北坞嘉园北小街,多层,0.80元/平米/月,商品房住宅,1.20,1668户,20%,2010年,1:1,上海总泉物业管理有限公司,上海总泉物业管理有限公司,116.5042052587595,39.99329357665045
黄南苑,49905,石景山 苹果园,杨庄东街,多层|高层,1.75元/平米/月,商品房住宅,2.00,1782户,40%,1999年,400,上海江辉物业管理有限公司,北京首钢物业管理有限公司,116.2066415585793,39.93572366410352
万象新天家园,57926,朝阳 常营,常营北路10号,小高层,3.18元/平米/月,商品房住宅,1.80,4899户,33%,2003年,车位比：1：0.7、150月/月,"上海海邦实业有限公司,上海博隆食品有限公司",天鸿燕桥物业管理公司,116.59934551396567,39.935548010434886
扣钟北里(东区),111889,西城 百万庄,扣钟北路,高层,2.45元/平米/月,商品房住宅,0.00,暂无数据,25%,2015年,充足,北京国环房地产开发公司,单位自管,116.34948066856813,39.93321958822052
郑王坟141号院,57591,丰台 玉泉营,南三环西路,多层,1.20元/平米/月,商品房住宅,0.00,132户,15%,1996年,150,上海东信物业管理有限公司,上海东信物业管理有限公司,116.34507250376959,39.855498418503934
碣石坪小区,56031,石景山 八角,石景山路,多层|高层,1.00元/平米/月,商品房住宅,3.00,257户,30%,1988年,150元/车位・月,北京城建有限责任总公司,北京首欣物业管理有限责任公司,116.25860085181941,39.90937036285399
亮马名居,89540,朝阳 朝阳公园,亮马桥路36号,高层|超高层,3.27元/平米/月,商品房住宅,4.07,437户,40%,2002年,地下B1车位460个，租价900元/月；地下B2车位480个，租价500元/月，售价20-25万元/个。,摩卡物业管理有限公司,北京中海物业管理有限公司,116.4822511212484,39.95789628932853
巨山馨苑,56005,海淀 四季青,杏石口路,多层,0.50元/平米/月,商品房住宅,1.50,300户,35%,2007年,150元/车位/月,北京新凤凰城房地产开发有限公司,北京新凤凰城开发公司,116.233209123698,39.9488330604661
灯笼库胡同小区,144109,东城 东单,灯笼库胡同,多层,1.00元/平米/月,商品房住宅,0.00,暂无数据,23%,2003年,暂无数据,暂无数据,暂无数据,116.4205602598423,39.92860144255692
中关村港沟16号院,108000,海淀 苏州桥,港沟路16号,多层,0.50元/平米/月,商品房住宅,0.00,暂无数据,暂无数据,1978年,暂无数据,无,北京亿方物业管理有限责任公司,116.30964243615054,39.98662567003797
冬晴园,81487,海淀 西北旺,后厂村路,多层,0.78元/平米/月,商品房住宅,1.80,2000户,20%,2015年,车位充足、小区停车免费,上海锦盈物业管理有限公司,阳光城物业服务(福建)有限公司,116.27478539761631,40.05615901617412
北大地一里,64390,丰台 北大地,西四环南路,多层,2.60元/平米/月,商品房住宅,1.60,2089户,30%,1991年,停车免费，车位充足,上海韩善贸易有限公司,业主自管,116.28707834919815,39.87757201882016
五福家园,37647,昌平 沙河,百沙路199号,多层,0.80元/平米/月,小产权房,1.20,2000户,25%,2000年,500个,"恒信服饰,上海申和实业有限公司",无,116.2723129913612,40.15191452657009
千鹤家园,77789,朝阳 惠新西街,北四环东路108号,多层,3.30元/平米/月,商品房住宅,1.90,1960户,40%,2002年,地表车位300个，150元/月、地下车位450个，300元-800元/月,北京金第房地产开发有限公司,金宇龙物业,116.47444257095883,39.83907807752365
和平街(十一区),87286,朝阳 和平街,和平里东街,多层,1.20元/平米/月,单位集体自建房,1.30,2508户,10%,1985年,车位充足,"阿克苏若贝尔,古驰贸易有限公司",和平街房管所,116.42850199919492,39.97369166671666
首座绿洲,57996,丰台 马家堡,角门北路3号,高层,1.49元/平米/月,商品房住宅,3.00,6138户,45%,2003年,车位充足,双祥物业,北京筑宇物业管理有限责任公司,116.38846110905426,39.85739221933813
枫泉花园,31089,顺义 后沙峪,裕华路31号,高层,0.00元/平米/月,经济适用房,0.00,暂无数据,暂无数据,暂无数据,暂无数据,暂无数据,暂无数据,116.55570152042449,40.09064899519692
南海家园三里,35119,大兴 亦庄,泰河一街,多层,1.50元/平米/月,商品房住宅,0.00,暂无数据,30%,2012年,地上地下均有车位,暂无数据,无,116.50240667146741,39.76900596099146
融科香雪兰溪,35863,通州 马驹桥,景盛北三街,高层,4.88元/平米/月,商品房住宅,2.50,2300户,35%,2009年,1：0.6 地下车库 地上车位,北京融科卓越房地产开发有限公司,第一太平融科物业管理(北京)有限公司,116.54391880637232,39.749493966812956
延静里中街3号院,69045,朝阳 CBD,延静里中街3号,多层,1.72元/平米/月,商品房住宅,2.90,暂无数据,30%,1981年,暂无数据,北京嘉信永廷房地产开发有限公司,北京凯泰物业管理有限公司,116.49090395924271,39.92319911034355
京贸中心,37124,通州 东关,通胡大街78号,高层,1.68元/平米/月,商品房住宅,7.20,400户,35%,2004年,二期比例1:1.1，总计303,通州区住房和城乡建设委员会,北京巨山燎原物业管理有限公司,116.69301102101612,39.9186670945244
十字坡东里,111317,东城 东直门,新中街,多层,0.00元/平米/月,单位集体自建房,2.00,320户,30%,2015年,地上停车位300个,紫江集团,北京西宇嘉业物业管理有限公司,116.44615630755196,39.94556991599285
新科祥园,142263,海淀 中关村,科学院南路21号,高层,3.00元/平米/月,商品房住宅,4.50,1860户,30%,2002年,租价：季付450一月，年付400一月，地下1-3层停车场,中科院红楼项目办,北京裕展物业管理有限公司,116.33046102566648,39.98873804750541
华威西里,62518,朝阳 潘家园,华威南路,多层|高层,0.60元/平米/月,商品房住宅,1.10,2900户,10%,1993年,600,上海友喜建设集团有限公司,北京开心合物业管理公司,116.46003198361184,39.87966709714191
梅园,76143,海淀 马连洼,圆明园西路,小高层,0.90元/平米/月,商品房住宅,1.80,暂无数据,27%,1996年,暂无数据,北京大地房地产开发有限责任公司,北京东居物业管理有限公司,116.28023020697339,40.03564695821337
芍药居北区,81764,朝阳 芍药居,文学院路,高层,0.00元/平米/月,商品房住宅,0.00,暂无数据,暂无数据,暂无数据,暂无数据,暂无数据,暂无数据,116.44419836086242,39.98877570747003
林肯公寓,50508,大兴 亦庄,北环东路,小高层|高层,4.90元/平米/月,办公,2.50,800户,35%,2010年,地上16个，地下434个,上海松港电子实业有限公司,北京晟邦物业管理有限公司,116.51413342108633,39.816510620561296
富成花园,139099,朝阳 亚运村,北四环东路89号,低层,7.50元/平米/月,商品房住宅,0.00,110户,80%,1998年,220,北京鸿达房地产有限公司,首欣物业管理,116.44807769320725,39.99802477556897
北卫家园,49724,朝阳 北苑,北五环东路,多层,3.00元/平米/月,商品房住宅动迁配套房,2.00,605户,30%,1998年,150元/车位/月,暂未获知,北卫物业,116.42695053574863,40.02643348442457
天露园(一区),41142,昌平 回龙观,龙禧二街,多层,0.65元/平米/月,经济适用房,0.00,3654户,30%,2007年,150元/车位/月,北京首开房地产开发有限公司,北京天鸿室地物业管理公司,116.32227198280698,40.090440417395676
北影小区,93628,海淀 牡丹园,北三环中路77号,多层,1.85元/平米/月,商品房住宅,2.00,2167户,30%,1986年,150元/车位/月,上海雅宁贸易有限公司,北京中影星光物业管理有限公司,116.36522302347775,39.979571058770844
将府锦苑,44000,朝阳 将台路,将台村路,高层,0.00元/平米/月,小产权房,0.00,暂无数据,暂无数据,暂无数据,暂无数据,暂无数据,暂无数据,116.53730898459936,39.98404607410841
建明里,37610,昌平 昌平县城,政府街,多层,0.80元/平米/月,商品房住宅,1.20,6000户,30%,1985年,150元/车位/月,北京兆恒房地产开发有限公司,云趣园物业,116.23003100863426,40.22794503013307
酒仙桥十街坊小区,51830,朝阳 酒仙桥,红霞中路,多层,0.00元/平米/月,商品房住宅其他,1.80,1400户,41%,1980年,停车地下450元，地上150元/位・月,暂未获知,业主自管,116.49559041908826,39.96880442153237
方庄南路18号院,55265,丰台 成寿寺,方庄南路18号,高层,1.20元/平米/月,商品房住宅,2.70,1574户,30%,2013年,暂无数据,上海蓝狮实业有限公司,金九成,116.44740154942957,39.85719087307165
顶秀欣园东苑,55736,丰台 宋家庄,宋庄路,高层,0.50元/平米/月,商品房住宅,3.50,2662户,30%,2003年,小区停车位共360个，150元/位・月,北京泰福恒投资发展有限公司,鸿路泽物业公司,116.43593754339267,39.84402862691414
稻田小区,32409,房山 长阳,长韩路,高层,0.00元/平米/月,动迁配套房,0.00,暂无数据,暂无数据,2013年,暂无数据,暂无数据,暂无数据,116.22866603341183,39.78725185834467
光华里,79010,朝阳 建外大街,光华路,多层,0.80元/平米/月,商品房住宅,0.00,暂无数据,25%,1998年,暂无数据,北京家嘉奥房地产开发有限公司,北方复瑞（北京）物业管理有限公司,116.4604275075279,39.91718782947065
中景江山赋,54586,顺义 后沙峪,北京市顺义区安富街8号,多层|小高层,2.98元/平米/月,商品房住宅,1.60,436户,30%,2008年,800个，车位比：1:1.车位充足，可租可售,北京景旭房地产开发有限公司,北京盛科物业管理有限公司,116.55994799023127,40.11668607557864
龙锦苑东五区,37411,昌平 霍营,龙锦三街,多层,0.65元/平米/月,经济适用房,1.60,1450户,28%,2007年,共计400个 150/月 1600/年,"上海芝阁信息科技服务有限公司,上海窗钩厂",北京天鸿宝地物业管理经营有限公司,116.38040474591858,40.092383553740525
新源时代小区,35063,大兴 生物医药基地,天河西路,高层,0.80元/平米/月,商品房住宅,3.00,2080户,30%,2012年,暂无数据,"上海创蓝文化传播有限公司,上海斯恳赫科技有限公司",北京天河众兴物业管理有限公司,116.33358569155239,39.69555056410312
前沙涧路7号院,36727,海淀 温泉,沙涧路7号,多层,0.52元/平米/月,商品房住宅,0.00,暂无数据,暂无数据,2009年,暂无数据,"阿克苏若贝尔,古驰贸易有限公司",单位自管,116.15449303728352,40.11594305509605
八角中里,52088,石景山 八角,八角东街25号,多层|高层,0.50元/平米/月,商品房住宅,2.50,5000户,12%,1988年,小区没有停车位.没有停车费.随意停车.一般都有车位. 固定的停车位需要付费。一月100元，交给单位,博信体育、上海对外建设,北京芳星园物业管理中心,116.21216056797151,39.9266900504298
学院南路乙12号院,85540,海淀 小西天,学院南路乙12号,多层,0.00元/平米/月,单位集体自建房,0.00,暂无数据,暂无数据,暂无数据,暂无数据,暂无数据,暂无数据,116.36970395102263,39.96360202279603
西马场北里,56595,丰台 角门,"马家堡路,近角门路",多层,1.20元/平米/月,商品房住宅,1.70,暂无数据,25%,2000年,地上车位300个、150元/月,北京金易房地产开发有限公司,北京西马物业管理有限责任公司,116.3880903783703,39.850168519273964
嘉园二里,60558,丰台 马家堡,角门北路,多层|高层,1.20元/平米/月,商品房住宅,3.00,3765户,30%,1994年,地上车位360个，120元/月,凯诚物业管理有限公司,北京城建物业管理有限责任公司,116.37424497520611,39.8548780562489
龙府花园,41107,顺义 胜利,中山北大街,多层,0.50元/平米/月,商品房住宅,1.50,1155户,35%,2000年,150元/车位/月,北京龙脉温泉房地产开发有限责任公司,北京昌振顺达物业管理有限公司,115.98980839491972,39.71489590254255
世纪东方嘉园(南区),65470,朝阳 欢乐谷,大柳树路,高层,1.35元/平米/月,商品房住宅,2.50,暂无数据,36%,2000年,地上150/月,漕河泾开发区物业管理有限公司,北京森茂物业管理有限公司北京金罗马物业有限公司,116.50059964010354,39.88051666865963
垡头翠城盛园社区(垡头翠成馨园C区112-144号),52374,朝阳 垡头,垡头路,小高层,0.00元/平米/月,经济适用房,0.00,暂无数据,暂无数据,暂无数据,暂无数据,暂无数据,暂无数据,116.51545761323858,39.8622104320498
西悦欣居,35424,房山 长阳,长阳路,多层,2.50元/平米/月,商品房住宅,0.00,暂无数据,暂无数据,2012年,暂无数据,北京建兴泰房地产开发有限公司,北京建兴泰物业,116.21164224569225,39.76111236552557
德茂小区,40333,大兴 旧宫,德仁路,多层,0.50元/平米/月,商品房住宅,1.20,2202户,44%,1985年,免费停车位,南郊农场房地产有限公司,北京德茂物业管理有限公司,116.44089636946885,39.787192116639616
远洋新仕界,37750,房山 良乡,"长虹东路,近卓秀北街",多层,3.60元/平米/月,商品房住宅,2.80,暂无数据,30%,2017年,暂无数据,北京远山置业有限公司,中远酒店物业,116.1876038597369,39.73091856533941
工体南路小区,82532,朝阳 工体,工人体育场南路,高层,3.00元/平米/月,商品房住宅,3.00,250户,40%,1988年,150,北京绿都源房地产开发有限公司,业主自管,116.4539339264879,39.93214715519599
彩虹新城,50005,大兴 黄村,兴华北路78号,小高层|高层,1.80元/平米/月,商品房住宅,2.10,3000户,40%,2006年,车位1：0.7，地上150元/月，1600元/年；地下230/月，机械260元/月，2860元/年。,"嘉吉投资（中国）有限公司,旭化成（中国）投资有限公司,百丽宫影院（上海）有限公司,史基摩欧文美尔（上海）建筑设计事务所有限公司,阿迪达斯（中国）有限公司,上海孩特贸易有限公司,露露乐蒙贸易（上海）有限",北京东和田园物业管理有限责任公司,116.34198098535698,39.754378121596766
弘善家园,56078,朝阳 潘家园,华威南路,高层,1.48元/平米/月,商品房住宅经济适用房,3.89,13776户,40%,2009年,地上车位150元/月・户，地下车位450元/月・户。年付赠送一个月,北京市崇文区城市建设开发公司,北京四海安信物业管理有限公司,116.45803496063262,39.87545908740894
中信新城(东区),51356,大兴 亦庄,鹿华路2号,小高层,3.68元/平米/月,商品房住宅,2.15,暂无数据,暂无数据,2013年,暂无数据,才美投资管理有限公司,中信物业服务有限公司北京分公司,116.49267371092792,39.78975049793148
万科四季花城,47912,顺义 石门,顺白路,多层|小高层,1.20元/平米/月,商品房住宅,1.56,2500户,30%,2006年,1：0.6 停车位相对要紧,万科房地产开发有限公司,北京万科物业服务有限公司,116.64541888492803,40.1326416257468
民安小区(南区),151930,东城 东直门,东直门内北小街26号,高层,0.00元/平米/月,商品房住宅,0.00,暂无数据,暂无数据,暂无数据,暂无数据,暂无数据,暂无数据,115.97929893909739,40.46620407867601
新城乐居(北区),47302,通州 土桥,颐瑞一街,高层,2.00元/平米/月,商品房住宅,0.00,暂无数据,暂无数据,2010年,暂无数据,北京新城基业投资发展有限公司,北京通州兴华物业管理公司,116.69696464322662,39.87105568447948
回龙观村中区,32000,昌平 回龙观,龙域中路,多层,1.00元/平米/月,商品房住宅,0.00,暂无数据,暂无数据,2000年,暂无数据,北京新龙城房地产开发有限公司,北京昌平区朱辛庄物业管理有限公司,116.3172597973835,40.06846182915507
优点社区,52135,朝阳 常营,幺家店路,多层|小高层|高层,1.30元/平米/月,商品房住宅,2.93,713户,31%,2006年,1:1 .5,上海振华企业管理有限公司,北京金鼎华物业管理有限公司,116.59509607975072,39.93685233181558
科学园南里三区,99572,朝阳 北沙滩,科学院南里东街,多层,1.95元/平米/月,商品房住宅,1.36,暂无数据,30%,1999年,暂无数据,瑞创物业管理有限公司,北京科住物业管理有限公司,116.3914399799559,40.008854056194124
百子湾西社区,0,朝阳 大望路,百子湾路,多层,0.00元/平米/月,小产权房,0.00,暂无数据,暂无数据,暂无数据,暂无数据,暂无数据,暂无数据,116.50185053052618,39.907088330494474
望京西园四区,63677,朝阳 望京,阜通西大街,高层,2.00元/平米/月,商品房住宅,0.00,暂无数据,暂无数据,1997年,暂无数据,"北京京海集团上海有限公司,上海智达科技有限公司",北京市望京实业总公司振安物业管理部,116.4778455615358,40.00247038502748
碧湖居,65519,朝阳 朝阳公园,朝阳公园西路9号,小高层,1.00元/平米/月,商品房住宅,1.50,326户,30%,1998年,地上车位200元/月/位，地下车位600元/月/位,"上海陆百建设有限公司,上海迈雯健身有限公司",北京达尔文酒店物业管理公司,116.48031114066904,39.94417746234976
金泰丽湾悦栖山,41136,门头沟 大峪,大峪南路,高层,2.80元/平米/月,商品房住宅,2.50,暂无数据,35%,2015年,暂无数据,煤科大厦物业管理有限公司,北京金泰物业服务公司,116.0998361775122,39.94306219272552
丽泽雅园,70206,丰台 太平桥,北京西站南路168号,高层,1.05元/平米/月,商品房住宅,4.21,684户,20%,2006年,车位充足、150元/车位/月,"上海璨石资产管理有限公司,上海舍简互联网科技有限公司",东兴联物业管理有限公司,116.3294133319502,39.8767995159479
团结湖北口,73018,朝阳 团结湖,东三环北路,高层,0.00元/平米/月,商品房住宅,0.00,暂无数据,暂无数据,暂无数据,暂无数据,暂无数据,暂无数据,116.4692028797836,39.938822569939134
泰胡路小区,33760,昌平 昌平周边,泰胡路22号,多层,0.00元/平米/月,小产权房,0.00,暂无数据,暂无数据,暂无数据,暂无数据,暂无数据,暂无数据,116.23589281140906,40.27834364462036
东方银座,78281,东城 东直门外,东直门外大街48号,超高层,8.00元/平米/月,商品房住宅,0.00,暂无数据,暂无数据,2003年,暂无数据,北京东黎广场有限公司,北京鼎铭物业管理有限公司,116.4419681377728,39.94612846594149
丰仪家园,44537,丰台 卢沟桥,张仪村路125号,多层|高层,1.60元/平米/月,商品房住宅,1.20,暂无数据,30%,2008年,1：1,地铁建筑总公司,北京丰仪家园物业管理有限公司,116.23456799044295,39.879475448951666
文慧园西路36号院,80000,海淀 小西天,文慧园西路36号,多层,0元/平米/月,商业,暂无数据,暂无数据,暂无数据,暂无数据,暂无数据,暂无数据,暂无数据,116.3654894096886,39.956084762135845
酷特区,67112,朝阳 十里堡,石佛营东路,高层,2.45元/平米/月,商品房住宅,3.00,485户,33%,2006年,地上车位200元每月，地下450元每月，车位充足,新华律师事务所,北京恒宝升物业管理有限公司,116.51484047735323,39.93583922184007
永利国际,81829,朝阳 三里屯,工人体育场体北路,高层,0.00元/平米/月,商品房住宅,4.32,暂无数据,30%,2010年,暂无数据,北京京茂房地产开发有限公司,达尔文国际物业有限公司,116.12384704208166,39.92689917474497
东亚尚品台湖,36250,通州 台湖镇,铺外路,高层,3.00元/平米/月,办公,2.50,暂无数据,38%,2016年,暂无数据,北京世纪泰丰国际会展中心有限公司,北京东亚时代物业管理有限公司,116.62682297273544,39.84202607787977
新中西里社区,96364,东城 东四十条,新中街,多层,1.00元/平米/月,单位集体自建房,2.00,暂无数据,30%,2009年,150/车位/月,北京市东城区住宅建设开发公司,业主自管,116.44505947652428,39.94092197709502
阳光水岸,41891,顺义 顺义城区,光明北街,多层|高层,1.30元/平米/月,商品房住宅,2.10,720户,30%,2009年,地上停车位，地下车库,上海百济物业管理有限公司,大龙物业管理公司,116.66504398574341,40.14801508109512
文慧园,84788,海淀 小西天,文慧园南路2号,多层|高层,1.50元/平米/月,商品房住宅,2.48,780户,33%,1990年,充足,北京市威凯房地产开发经营公司,北京羲和物业管理中心,116.36895557270226,39.955278405662064
丽高花园,58830,顺义 中央别墅区,榆阳路,多层,8.58元/平米/月,商品房住宅,1.30,396户,40%,2003年,1：1,庆扬贸易有限公司,香港乔乐物业服务（中国）有限公司,116.53368199166209,40.079661394778434
百泉花园,19310,昌平 昌平县城,水南路,多层,2.11元/平米/月,小产权房,0.00,暂无数据,暂无数据,暂无数据,暂无数据,暂无数据,居民自管委,116.21850817436611,40.20990637239375
建功东里,97571,西城 白纸坊,南菜园街,多层|小高层,0.50元/平米/月,单位集体自建房,2.20,700户,30%,1980年,地面车位150元/月,陆金所,北京宣兴房地产开发建设有限公司,116.36110150796742,39.88268792453647
四平园小区,122139,西城 陶然亭,南横东街,多层|高层,2.00元/平米/月,商品房住宅,2.00,2800户,35%,1995年,全是地上车位，有分散的地上车位出租150元/月，没有规划的可以先到先停。,上海益广物业管理有限公司,上海益广物业管理有限公司,116.38636599111335,39.88821845874299
首座御园(二期1号院),34226,大兴 黄村,科苑路30号,小高层,2.52元/平米/月,商品房住宅,0.00,暂无数据,暂无数据,暂无数据,车位充足,暂无数据,暂无数据,116.37290452372412,39.75531946493103
万恒家园,50554,丰台 青塔,小屯西路66号,多层,0.93元/平米/月,商品房住宅,1.36,670户,30%,2003年,车位充足,上海华洽投资管理有限公司,北京国瑞嘉物业管理公司,116.25603138365395,39.871022389304386
鸿顺园东区,35894,房山 良乡,房山区良乡长虹东路,多层|高层,1.00元/平米/月,商品房住宅,2.20,暂无数据,35%,2010年,336,上海上投商业资产管理有限公司,北京德隆泰物业管理有限公司,116.1959294432373,39.72905161724095
硅谷SOHO,30000,昌平 昌平县城,G6辅路,小高层|高层,1.00元/平米/月,办公,3.50,暂无数据,30%,2017年,暂无数据,新桥物业管理有限公司,北京昌振顺达物业管理有限公司,116.23985056582492,40.20185035642429
万博苑,104936,西城 陶然亭,右安门内大街,多层|高层,2.68元/平米/月,商品房住宅,5.00,866户,30%,1999年,停车位300个，地面车位150元/月,上海依娜生物科技有限公司,乐生活（北京）智慧社区投资发展有限责任公司,116.37210943351724,39.87733018435108
春荫园,104150,海淀 世纪城,蓝靛厂中路,小高层|高层,2.50元/平米/月,商品房住宅,2.20,11000户,48%,2004年,暂无数据,上海铭静物业管理有限公司,北京世纪颐和物业管理有限责任公司,116.28830938706903,39.969020079310916
通瑞嘉苑,44602,通州 北关,潞苑东路,高层,2.20元/平米/月,商品房住宅,2.80,暂无数据,30%,2016年,暂无数据,北京通瑞兴盛置业有限公司[房企申请入驻,中铁建(北京)物业管理有限公司,116.69434446571512,39.94144059713817
GOGO新世代,74632,丰台 方庄,蒲方路9号,高层,1.98元/平米/月,商品房住宅,3.00,暂无数据,33%,2005年,暂无数据,北京双林房地产开发有限公司,北京方庄物业管理有限责任公司,116.42934999959634,39.87269273484701
空港新苑8号院,16319,大兴 大兴周边,榆祥路,高层,0.00元/平米/月,动迁配套房,0.00,暂无数据,暂无数据,暂无数据,暂无数据,暂无数据,暂无数据,116.31444495706798,39.52271406964295
潘家园小区,32066,怀柔 怀柔城区,滨湖北街,高层,1.12元/平米/月,商品房住宅,0.00,暂无数据,30%,1980年,车位充足,北京市城市建设开发集团有限公司,北京万年物业管理有限责任公司,116.64204197485492,40.33626600399439
宣武门外东里,122209,西城 宣武门,宣武门东大街,多层,1.00元/平米/月,商品房住宅,0.00,暂无数据,30%,1980年,地面车位150元/月,暂无数据,业主自管,116.38456902077118,39.90521009579556
双桥铁路小区(北二区),52248,朝阳 双桥,双桥路,多层,0.00元/平米/月,商品房住宅,2.68,暂无数据,22%,1998年,暂无数据,上海豪景物业管理有限公司,居民自理,116.57724719842021,39.90767404018706
嘉铭桐城(F区),91231,朝阳 亚运村小营,北苑路,小高层|高层,2.30元/平米/月,商品房住宅,2.30,暂无数据,30%,2000年,暂无数据,旭和物业招商部,北京盛世物业服务有限公司,116.43074210364514,40.01076907475474
i立方小区,16666,大兴 生物医药基地,庆祥南路29号,小高层|高层,2.97元/平米/月,办公,2.50,暂无数据,30%,2012年,暂无数据,"上海塘头建材有限公司,中企物业管理有限公司",北京金隅大成物业管理有限公司,116.3386612075143,39.70071059580113
万杰医院家属楼,43774,朝阳 朝青板块,青年路北小区10号,多层,0.00元/平米/月,商品房住宅,0.00,暂无数据,暂无数据,暂无数据,暂无数据,暂无数据,暂无数据,116.52398037659506,39.94323084308083
牡丹园东里,102689,海淀 牡丹园,北土城路,多层|高层,0.68元/平米/月,商品房住宅,1.33,1772户,30%,2015年,停车位是120元/月,上海显贵物业管理有限公司,北京海淀区志新物业管理公司,116.40450520478468,39.984943888839986
三丰里,81578,朝阳 朝外大街,三丰胡同,低层,3.80元/平米/月,商品房住宅,0.00,2238户,30%,1978年,1600,北京搜候房地产有限责任公司,港铁（北京）房地产管理有限公司,116.85437534655392,40.3769860026615
TBD万科天地,38571,昌平 回龙观,"回昌东路,近朱辛庄路",高层,3.60元/平米/月,办公,2.50,暂无数据,30%,2018年,暂无数据,北京祥业万科房地产开发有限公司,北京万科物业服务有限公司,116.49792503965102,39.94701113959473
友谊嘉园,31547,海淀 西北旺,友谊路,高层,0.00元/平米/月,动迁配套房,0.00,暂无数据,暂无数据,暂无数据,暂无数据,暂无数据,暂无数据,116.26582066794893,40.09265456586369
奥北中心北区,30000,昌平 立水桥,中东路400号,高层,1.78元/平米/月,办公,4.37,暂无数据,33%,2008年,暂无数据,"上海海林贸易有限公司,上海羽西科技信息有限公司",北京富瑞物业管理有限公司,116.41634091886195,40.06553306059169
翠林三里,62427,丰台 右安门,右安门外大街,多层,1.20元/平米/月,商品房住宅,2.20,暂无数据,33%,1996年,充足,"阿克苏若贝尔,古驰贸易有限公司",华商北方物业公司,116.37383337162144,39.864358250157885
聚兴园馨领域小区,58507,石景山 鲁谷,重聚路,多层,1.98元/平米/月,商品房住宅,2.01,920户,35%,2004年,400个停车位，130元/月・位,华新物业,北京华兴物业管理中心,116.22928065404176,39.898264230822804
观筑庭园,54105,朝阳 十里河,吕营大街,小高层,2.50元/平米/月,商品房住宅,1.88,300户,30%,2004年,本小区车位十分充足,北京中鼎基业房地产开发有限公司,北京万通鼎安国际物业管理顾问有限公司,116.47434342767461,39.8452718978443
金海国际,61384,朝阳 百子湾,广渠路21号,小高层|高层|超高层,2.00元/平米/月,商品房住宅,2.80,1534户,32%,2004年,地下车位380元/月,东方房产物业管理有限公司,北京盛世物业服务有限公司,116.49900622578996,39.90098671475169
四合欣园,40277,丰台 科技园区,樊羊路,多层,0.50元/平米/月,商品房住宅,0.00,暂无数据,35%,暂无数据,暂无数据,暂无数据,无,116.31612685447432,39.83022786232229
广馨居,67201,朝阳 双井,广渠门外大街,多层|高层,1.70元/平米/月,商品房住宅,3.30,180户,30%,2000年,3户1个停车位,上海安亭物业管理有限公司,北京房泰物业管理有限责任公司,116.46038151428577,39.900371956454265
瀛海家园畅园,36067,大兴 瀛海镇,吉街17号,高层,0.00元/平米/月,商品房住宅,暂无数据,暂无数据,暂无数据,暂无数据,暂无数据,暂无数据,无,116.44781206426795,39.76965386391049
明日嘉园,68849,丰台 马家堡,嘉园路,小高层,1.50元/平米/月,商品房住宅,2.00,1400户,35%,2003年,地上150元/月、地下300元/月,禹州物业管理有限公司,北京华腾世纪物业管理公司,116.37309505432279,39.85075132638174
葛布店南里,53488,通州 玉桥,运河西大街,多层,1.80元/平米/月,商品房住宅,1.10,1099户,30%,1985年,47元/车位/月,通州区住房和城乡建设委员会,至善嘉和（北京）物业管理,116.66821446521033,39.89719152270155
清上园,69676,海淀 安宁庄,安宁庄前街,高层,2.00元/平米/月,商品房住宅,2.60,900户,35%,2002年,地上150元/位.月。地下300元/位・月 车位紧张！不过也有产权车位，现在有出售！,上海海基投资有限公司,北京天恒瑞海物业管理有限公司,116.33754641037643,40.04602945665792
树村路甲1号院,40000,海淀 马连洼,树村路甲1号,多层,0.00元/平米/月,商品房住宅,0.00,暂无数据,暂无数据,暂无数据,暂无数据,暂无数据,北京博众佳源物业管理有限公司,116.30764181994927,40.02899226781096
佳运园(一区),49923,昌平 立水桥,立军路,多层,0.80元/平米/月,商品房住宅,1.15,暂无数据,45%,1998年,暂无数据,"利浦,博纳影业,梨视频,暖流文化,滴滴打车,宝燕集团",北京裕发弘瑞物业管理有限公司,116.40635158192988,40.05245720767015
紫金新干线一区,50508,昌平 霍营,霍营东路,多层,1.82元/平米/月,商品房住宅,1.63,1834户,27%,2008年,四期总共3600个机动车位，车位配比为1：0.7,北京新领域房地产开发有限公司,北京悦豪物业管理有限公司,116.38649570642899,40.086531275613225
西罗园第二社区(西罗园二区),57331,丰台 西罗园,罗园路,高层,0.62元/平米/月,商品房住宅,2.52,暂无数据,30%,1990年,150元/车位/月,北京元亨房地产开发有限公司,西罗园物业管理有限公司,116.40018300782341,39.867284088969726
同仁园,54961,丰台 刘家窑,仁东路,多层|小高层|高层,1.16元/平米/月,商品房住宅,3.50,2000户,42%,2000年,180元/位・月,东亚明华,北京京工物业管理有限责任公司,116.42590005728528,39.860411750990245
保温段住宅小区,41844,丰台 花乡,外环西路,多层,0.48元/平米/月,商品房住宅,1.20,暂无数据,30%,1980年,暂无数据,丰台铁路局,街道办事处（委员会）代管物业,116.28547155013246,39.839952832615765
忠实里(西区),83871,东城 东花市,忠实里南街,多层,2.60元/平米/月,商品房住宅,1.37,暂无数据,10%,1980年,暂无数据,北京方锦基业房地产开发有限公司,北京光华基业房地产开发有限公司,116.45087869961793,39.90510348013575
德鑫嘉园,37272,丰台 新宫,槐房北路2号,多层|小高层|高层,0.00元/平米/月,小产权房,0.00,暂无数据,38%,2005年,暂无数据,暂无数据,无,116.37952907770746,39.822622791118356
大兴金茂悦,38181,大兴 大兴周边,龙江路,小高层,0.00元/平米/月,商品房住宅,0.00,暂无数据,暂无数据,暂无数据,暂无数据,暂无数据,暂无数据,116.49062171165146,39.760358856544805
兴隆家园(南区),59644,朝阳 高碑店,高碑店北路,多层,0.55元/平米/月,商品房住宅,2.10,3500户,35%,2004年,2：1、地表车位150元/月、地下车位350元/月，地下车位在售，150000元/个，停车位充足，有地上和地下停车位,上海宝钢住商汽车贸易有限公司,北京天翌物业管理公司,116.53028405585022,39.91678966406048
青年路小区,57289,朝阳 朝青板块,朝阳北路,多层,2.60元/平米/月,商品房住宅,2.20,1152户,33%,1980年,"停车位充足、出租150元月,地上停车,流动车位",汉光（上海）物业管理有限公司,天成园物业管理公司,116.5293671554162,39.93147389346306
华远和煦里,32368,大兴 生物医药基地,安顺南路12号,高层,1.20元/平米/月,商品房住宅,0.00,暂无数据,暂无数据,暂无数据,暂无数据,无,无,116.40771916223828,39.70989000223979
中国铁建花语城,85331,朝阳 北苑,水岸南街2号,多层|高层,3.15元/平米/月,商品房住宅,2.02,暂无数据,30%,2012年,暂无数据,中国铁建房地产集团有限公司,北京大自然物业有限责任公司,116.44693136554598,40.05592106217938
北花园小区(3号院),34883,朝阳 高碑店,北花园中路,高层,0.00元/平米/月,动迁配套房,0.00,暂无数据,暂无数据,暂无数据,暂无数据,暂无数据,居民自理,116.55419973327291,39.910139348053896
财神庙胡同小区,40581,昌平 昌平县城,财神庙胡同,低层,0.90元/平米/月,商品房住宅,0.00,暂无数据,暂无数据,2000年,车位充足,暂未获知,-,116.23818232266234,40.22305866680211
兴华东里,0,大兴 兴丰大街,富强路,多层,0.00元/平米/月,小产权房,0.00,暂无数据,暂无数据,暂无数据,暂无数据,暂无数据,暂无数据,116.34174257507465,39.74161177920552
西山美墅馆(E区),96294,海淀 香山,星河路,低层,0.00元/平米/月,商品房住宅,1.00,暂无数据,15%,2003年,暂无数据,上海家榕资产管理有限公司,北京当代物业管理有限公司,116.24605920435714,39.9643173399936
姚家园西里三号院,44878,朝阳 姚家园,姚家园西里3号,多层,3.50元/平米/月,动迁配套房,0.00,暂无数据,暂无数据,2007年,暂无数据,"上海塘头建材有限公司,中企物业管理有限公司",北京金隅物业管理有限责任公司,116.51972986441349,39.952599372416586
双河北里小区,35730,大兴 黄村,京开路,多层,0.80元/平米/月,商品房住宅,1.20,1923户,30%,2003年,1:1，150元/月,黄村镇农工商开发总公司,北京富民物业管理有限公司,116.35485963213134,39.74542992810652
玉竹园,29175,房山 良乡,房山区良乡揽秀北大街,多层,0.50元/平米/月,商品房住宅动迁配套房,1.80,996户,35%,2000年,免费,北京首开集团有限责任公司,北京祥和智德房地产开发有限公司,116.16436101314117,39.730276121645886
首座御园(三期),35076,大兴 枣园,科苑路30号,小高层,0.00元/平米/月,商品房住宅,0.00,暂无数据,暂无数据,暂无数据,暂无数据,暂无数据,暂无数据,116.37161967735321,39.760945204837654
东铁营横一条小区,56108,丰台 刘家窑,东铁营横一条,多层,1.00元/平米/月,商品房住宅,1.89,600户,15%,2000年,230,"上海芝阁信息科技服务有限公司,上海窗钩厂",上海叶达贸易发展有限公司,116.43768896964546,39.86292979424595
建欣苑一里,54293,丰台 大红门,大红门西路,多层|高层,0.55元/平米/月,商品房住宅,3.00,702户,30%,2002年,充足,"上海欧良电子科技公司,盛世饮用水有限公司",建苑园物业公司,116.40457617091997,39.84953280584563
北新桥三条,119192,东城 雍和宫,北新桥三条,低层,0.00元/平米/月,商品房住宅,0.00,暂无数据,暂无数据,暂无数据,暂无数据,暂无数据,暂无数据,116.44608650921384,39.97416289940782
首钢苹果园三区居民区(苹果园三区),46870,石景山 苹果园,苹果园大街,多层,0.65元/平米/月,商品房住宅,1.10,2200户,20%,1998年,一年1500元带有地锁的可以出租，没带地锁的可以免费停车，停车有点紧张,上海冠图企业管理有限公司,首钢物业管理公司,116.18838888892206,39.935715918754475
民安小区,104240,东城 东直门,北中街20号,高层,1.05元/平米/月,商品房住宅,3.20,3291户,35%,2002年,"地上400个,160元/月，地下600个",东方置地,燕厦物业东旭佳业,116.43699350151964,39.94904781376192
西潞园,35017,房山 良乡,良乡西潞北大街,多层,0.50元/平米/月,商品房住宅,0.00,暂无数据,暂无数据,1993年,暂无数据,暂无数据,北京鸿翔联物业公司,116.13827484994526,39.74018789405717
首创新悦都(二区),41992,房山 长阳,永兴街,小高层,1.80元/平米/月,商品房住宅,2.00,暂无数据,30%,2015年,暂无数据,北京兴泰吉成置业有限公司,北京盛世物业服务有限公司,116.77863319036076,40.3483840775163
宋家庄家园,53938,丰台 宋家庄,石榴庄路,多层|高层,1.24元/平米/月,商品房住宅,2.27,800户,28%,2007年,180,北京建工地产开发有限公司,北京建工物业服务有限公司,116.43295732503277,39.853638768789594
马连洼北路1号院,119245,海淀 上地,马连洼北路1号,多层,0.40元/平米/月,商品房住宅,2.00,680户,30%,1990年,免费,上海地九资产管理有限公司,业主自管,116.31169973542949,40.042188379647754
鹤巢居,64949,丰台 刘家窑,横五条,小高层|高层,2.20元/平米/月,商品房住宅,0.00,暂无数据,暂无数据,2005年,暂无数据,抚顺钢铁公司物业管理有限公司,北京龙腾洪都物业管理有限责任公司,116.43267894015523,39.85683467067936
朝阳公园西里(北区),70564,朝阳 朝阳公园,朝阳公园西路,多层,1.20元/平米/月,商品房住宅,1.60,326户,36%,1993年,120,"文汇审计咨询管理中心,上海汇贤机电设备有限公司",北京金隅大成物业管理有限公司,116.47837771771991,39.94668286266965
兴华园,42523,大兴 黄村,清源北路209号,多层|小高层|高层,1.10元/平米/月,商品房住宅,2.10,3000户,40%,1996年,地上车位80元/月，地下车位180元/月 现在无固定车位的每天基本上是收费两元每台车,北京大兴华房地产集团,天兴物业管理有限公司,116.34280598913735,39.75198809412437
熙兆大厦,23627,大兴 生物医药基地,华佗路9号,高层,0.00元/平米/月,办公,0.00,暂无数据,暂无数据,暂无数据,暂无数据,暂无数据,暂无数据,116.32563595728074,39.68074506371486
美和园,78490,海淀 清河,小营西路,小高层,1.98元/平米/月,商品房住宅,2.20,1710户,30%,1997年,10：3，150元/车位/月,"上海欧良电子科技公司,盛世饮用水有限公司",北京金隅嘉华物业管理有限公司,116.3311457141262,40.03928664490563
樱花园一区,31597,顺义 机场,李天路,多层,0.55元/平米/月,商品房住宅,1.30,1472户,30%,2015年,停车免费，现有700个停车位,上海爱桥物业管理有限公司,北京首欣物业管理有限责任公司,116.63672436555805,40.031171484081085
瑞雪春堂,34030,房山 良乡,良官公路,小高层,1.60元/平米/月,商品房住宅,2.20,4000户,30%,2005年,比例 18:43 共2408个，其中地上1008个，地下1400个。,北京瑞雪春堂房地产开发有限公司,北京春堂物业服务公司,116.15402097773801,39.72458008315873
名流花园,34472,昌平 北七家,"北清路,近七星路",多层,1.00元/平米/月,商品房住宅,1.50,2600户,40%,1998年,停车位充足，免停车费。,北京名流投资有限公司,北京温尔馨物业管理有限责任公司,116.43733898981878,40.10781405729852
华纺易城,71751,朝阳 朝青板块,青年路29号,小高层,2.30元/平米/月,商品房住宅,2.46,2930户,40%,2005年,一期户型面积120平方米1:0.8，120平方米以上1:1,上海第 一太平戴维斯物业管理有限公司,北京华纺正金物业管理有限公司,116.5214792245636,39.9362757945657
启迪香山,55577,石景山 八大处,香山南路28号,小高层,0.50元/平米/月,商品房住宅,2.30,暂无数据,20%,2017年,暂无数据,北京启迪和谐投资发展有限公司,暂无数据,116.2146713318719,39.97999808946226
东亚上北中心,34688,昌平 回龙观,回龙观西大街9号,高层,1.68元/平米/月,办公,2.50,3967户,30%,2015年,总数：1549个 比例：723:1549 地上车位：723个 地下车位：826个，地上车位：150元/月，地下车位：380元/月,科创动力,北京诚智慧中物业管理有限公司,116.50111140475258,40.10806576232666
感化胡同14号院,96313,西城 长椿街,感化胡同14号,多层,0.00元/平米/月,单位集体自建房,0.00,暂无数据,30%,1983年,暂无数据,"上海吉广文化传媒有限公司,上海智奥会展有限公司",业主自营,116.37085261427823,39.89992366718569
万科星园,78080,朝阳 媒体村,安立路,多层,3.38元/平米/月,商品房住宅,2.14,2600户,36%,2001年,社区人车分流无地上车位，地下两层，共1750个车位，B1层车位售价40万左右年租金9500左右，B2层车位32万-35万出租年租金8800左右。,上海新中物业管理有限公司,北京万科物业服务有限公司,116.41929796093969,40.03496277744816
利泽西园,72814,朝阳 望京,广顺北大街,多层|高层,1.60元/平米/月,商品房住宅,2.10,2746户,30%,2015年,持卡进门，车位对本小区免费。,诚事物业管理有限公司,北京城建弘城物业管理有限责任公司,116.47158697721724,40.01848807719558
和平里社区(六区),110958,东城 和平里,和平里东街,多层,2.20元/平米/月,商品房住宅单位集体自建房,1.30,1176户,10%,1998年,200元/位・月,"阿克苏若贝尔,古驰贸易有限公司",国天物业,116.42898250281222,39.96206940196272
金星园,97992,朝阳 太阳宫,太阳宫南街,高层,2.80元/平米/月,商品房住宅,2.81,3462户,35%,1995年,550元/位・,松开物业管理有限公司,北京冠城酒店物业管理有限公司,116.46358316495389,39.9737958247671
瑞祥里东区,46483,朝阳 管庄,瑞祥路,多层,0.55元/平米/月,商品房住宅,1.75,2227户,20%,2008年,150元/车位/月,管庄乡政府,永芳物业,116.6215089566606,39.91682210674289
东琉璃厂四合院,192288,西城 和平门,南新华街,多层,0.40元/平米/月,商品房住宅,0.00,256户,20%,1983年,50,北京城建集团有限责任公司,城市开发,116.3933259723741,39.90181111177801
珠江峰景,57849,丰台 青塔,青塔西路58号,多层|小高层|高层,1.98元/平米/月,商品房住宅,2.40,3600户,35%,2006年,地下车位400元/位・月，4600元/位・年，地上车位150元/位・月、产权车位20万,北京东方恒嘉房地产开发有限公司,北京康景物业管理有限公司,116.2726510237246,39.88530777652839
重聚园,51003,石景山 鲁谷,鲁谷大街41-1号,多层|小高层|高层,1.50元/平米/月,商品房住宅,2.80,1000户,30%,2004年,小区停车位目前充足，地上地下都有。,博信体育、上海对外建设,北京芳星园物业管理中心,116.23352927978176,39.90020084716254
雍景双庐,48381,石景山 古城,苹果园南路,高层,1.93元/平米/月,商品房住宅,0.00,460户,30%,2015年,200元/月，车位配比1:0.6,上海幸福坊创意产业管理有限公司,上海幸福坊创意产业管理有限公司,116.20808729146705,39.93802662146487
彩虹城(一区),61682,丰台 石榴庄,石榴庄西街232号,小高层|高层,1.80元/平米/月,商品房住宅,2.10,5500户,30%,2015年,暂无数据,"嘉吉投资（中国）有限公司,旭化成（中国）投资有限公司,百丽宫影院（上海）有限公司,史基摩欧文美尔（上海）建筑设计事务所有限公司,阿迪达斯（中国）有限公司,上海孩特贸易有限公司,露露乐蒙贸易（上海）有限",北京东和田园物业管理有限责任公司,116.422679632032,39.84565005434085
芳城园(三区),69861,丰台 方庄,蒲芳路,多层|高层,1.85元/平米/月,商品房住宅,2.00,508户,30%,1990年,停车位：300个,北京城市建设房地产开发有限公司,北京方庄物业管理有限责任公司,116.44287497718511,39.87317844323007
旭辉26街区,35185,顺义 石门,文明街17号,多层,0.00元/平米/月,办公,2.33,暂无数据,30%,-1年,暂无数据,旭辉集团股份有限公司,上海永升物业管理有限公司北京分公司,116.61863276207876,40.12911398855746
华瀚福园(D区),27692,朝阳 东坝,东坝南二街,高层,0.00元/平米/月,经济适用房,0.00,暂无数据,暂无数据,暂无数据,暂无数据,暂无数据,暂无数据,116.67548454153314,40.04582598833829
建设部大院,116202,海淀 增光路,三里河路9号,多层|高层,1.50元/平米/月,商品房住宅,3.10,2546户,35%,1996年,150元/车位/月,建设部,北京万科物业服务有限公司,116.33421962575078,39.93770907220121
安河家园九里,27500,海淀 马连洼,北清路,小高层|高层,1.00元/平米/月,动迁配套房,0.00,暂无数据,暂无数据,暂无数据,暂无数据,暂无数据,北京安河仁嘉物业管理有限公司,116.13768897509166,40.07600807062741
次渠嘉园(三区),20890,通州 次渠,北小营路,高层,0.00元/平米/月,商品房住宅,0.00,暂无数据,暂无数据,暂无数据,暂无数据,暂无数据,暂无数据,116.43071295452967,39.99985016494644
园景东区,46671,通州 梨园,云景东路8号,高层,1.72元/平米/月,商品房住宅,3.41,1174户,30%,2004年,"一期地上停车场,二期地下车库",北京住总集团有限责任公司,北京园景时尚物业管理有限公司,116.67443100883104,39.888157075423244
沙河高教大楼,20000,昌平 沙河,北沙河东路,高层,0.00元/平米/月,小产权房,0.00,暂无数据,20%,暂无数据,暂无数据,北京罗顿沙河建设发展有限公司,罗顿物业管理有限公司,116.87915362813071,40.32288535906217
B悦国际,25000,大兴 生物医药基地,天华大街,高层,2.98元/平米/月,办公,2.50,3061户,35%,2014年,共2062个，其中地下1919个停车位，地上143个停车位。车位配比为1：0.67,北京锦荣物业管理有限公司,北京晟邦物业服务公司,116.31989973761623,39.69223606083886
北街家园(五区),47239,昌平 沙河,高教园北二街,高层,2.20元/平米/月,商品房住宅,2.60,暂无数据,30%,2009年,暂无数据,"恒信服饰,上海申和实业有限公司",北京罗顿物业管理有限公司,116.27525377410922,40.17288732186469
密云华润橡树湾,28560,密云 密云城区,滨河路,小高层,0.95元/平米/月,商品房住宅,2.36,暂无数据,30%,暂无数据,暂无数据,华润置地（北京）股份有限公司,华润置地(北京)物业管理有限责任公司,116.84592274085779,40.36128817495621
香花畦家园,49475,顺义 后沙峪,裕华路,多层,2.30元/平米/月,商品房住宅,1.49,1070户,35%,2011年,1070(1:1),北京天洋志普房地产开发有限公司,北京市均豪物业管理股份有限公司,116.55502931841137,40.116626761146534
玉璞家园,13851,丰台 七里庄,西三环南路,多层,0.00元/平米/月,经济适用房,0.00,暂无数据,暂无数据,2014年,暂无数据,暂无数据,暂无数据,116.31556954573591,39.88039658730076
曙光花园望河园,87738,海淀 车道沟,彰化路7号,高层,1.00元/平米/月,商品房住宅,2.06,544户,30%,2004年,890个,上海家能实业有限公司,北京燕桥物业管理有限公司,116.29871167504403,39.94894382512917
朝阳门南大街小区,83699,朝阳 建外大街,朝阳门南大街甲12号,高层,2.50元/平米/月,商品房住宅,0.00,暂无数据,暂无数据,1982年,暂无数据,国家福利房,业主自管,116.44231138030815,39.92397952449237
航空胡同40号院,129314,西城 新街口,航空胡同40号,多层,1.20元/平米/月,商品房住宅,1.90,200户,28%,2000年,总数0个 地上车位0个,暂无数据,业主自管,116.38036117810134,39.94454905347858
蓝靛厂翠叠园,106918,海淀 世纪城,蓝靛厂中路,小高层,2.52元/平米/月,商品房住宅,1.70,11000户,30%,2004年,地下车位1000元每个每月，售价60万元，地上车位100个，租金800元,北京金源鸿大房地产开发有限公司,北京世纪颐和物业管理有限责任公司,116.29195893286442,39.96914214683931
澳景园,45429,顺义 天竺,天北路,低层,7.50元/平米/月,商品房住宅,0.69,129户,暂无数据,2010年,每户双车库设计,上海磊石集团有限公司,北京凯莱物业管理有限公司,116.55635566649686,40.07073232601501
颐阳山水居东区,43004,海淀 西北旺,黑龙潭路,多层,1.00元/平米/月,小产权房,1.53,暂无数据,35%,2015年,暂无数据,向蓝企业有限公司,北京同方物业管理有限公司,116.21808659959028,40.044612829435714
小街之春嘉园,40162,通州 土桥,砖厂北街9号,多层,1.50元/平米/月,商品房住宅,1.50,637户,40%,2006年,总数0个 地上车位0个,通州区住房和城乡建设委员会,北京澳通物业管理中心,116.69581211725733,39.88255677356782
中门寺南坡小区,23696,门头沟 大峪,大峪南路,多层,1.82元/平米/月,商品房住宅动迁配套房,0.00,暂无数据,暂无数据,2015年,暂无数据,暂无数据,北京城建福安楼寓物业管理有限公司,116.09676388283754,39.93649867862423
昌盛园(二区),40397,昌平 昌平县城,昌平区南环东路,多层,1.50元/平米/月,商品房住宅,2.00,2000户,30%,2000年,600,捷克旅游局上海办事处、宇力恩国际贸易(上海)有限公司,鼎轩物业管理有限公司,116.26324208198255,40.21770365517781
北京怡园,45141,昌平 昌平县城,水库路16号,多层|小高层|高层,2.50元/平米/月,商品房住宅,2.93,1603户,30%,2015年,126,北京市昌平房地产开发有限责任公司公司,北京天和丰益物业管理有限责任公司,116.26975246133557,40.236648600107785
大羊毛胡同小区,93342,东城 建国门,大羊毛胡同,低层,0.00元/平米/月,商品房住宅,0.00,24户,10%,1953年,暂无数据,暂无数据,暂无数据,116.4205602598423,39.92860144255692
车道沟南里小区,90744,海淀 紫竹桥,车道沟南路,高层,1.80元/平米/月,商品房住宅,3.00,3150户,12%,1982年,1500元/年,上海央邦计算机科技有限公司,北京云建物业管理公司,116.30527999510242,39.94802105731583
龙冠冠华苑,48308,昌平 北七家,定泗路,高层,0.50元/平米/月,商品房住宅其他,2.50,暂无数据,30%,2017年,暂无数据,北京华润地产股份有限责任公司,北京龙冠物业管理有限公司,116.41478469439646,40.124521536339834
京旺家园一区,31666,朝阳 望京,金港南路,小高层,1.20元/平米/月,动迁配套房,2.60,8106户,30%,2000年,现在还没有收取费用，都是在各自楼下停放,"上海竞翔汽车零件有限公司,上海佳化有限公司",北京华特物业管理有限公司,116.57926813878365,40.01856829158413
亮马嘉园,64363,朝阳 酒仙桥,酒仙桥路,小高层|高层,2.30元/平米/月,商品房住宅,2.00,583户,30%,2006年,地上100个150元/月，地下400元/月,铭大物业管理有限公司,北京市均豪物业管理股份有限公司,116.50652180900863,39.96635216464175
六合胡同小区,124875,西城 西四,六合胡同,多层,3.80元/平米/月,商品房住宅,0.00,暂无数据,暂无数据,暂无数据,暂无数据,暂无数据,暂无数据,116.38252941811079,39.93310236624391
三环新城7号院,56408,丰台 玉泉营,丰桥路7号,小高层|高层,1.20元/平米/月,商品房住宅,2.40,9000户,40%,2004年,停车位2：1，地面车位150元/车位/月，地下车位300/车位/月,上海鸿鼎物业管理有限公司,北京新城康景物业管理有限责任公司,116.31663080386541,39.85754405068532
迪阳公寓,95197,朝阳 朝外大街,芳草地西街,多层|小高层|高层,6.00元/平米/月,商品房住宅,2.00,70户,20%,1997年,90个,上海宁安物业管理有限公司,国贸物业酒店管理有限公司,116.45351109408436,39.924375226937805
西王庄小区,102040,海淀 五道口,清华东路,多层,1.20元/平米/月,商品房住宅单位集体自建房,1.90,1218户,30%,1987年,150元/月,清华大学,清华大学房管科,116.34295133496886,40.00191920775497
青年汇佳园,74637,朝阳 朝青板块,青年路,小高层,2.00元/平米/月,商品房住宅,2.23,583户,30%,2015年,有地上车位（150元/月-200元/月）和地下车位（350元/月-400元/月）,强佑房地产开发商,北京西宇嘉业物业管理有限公司,116.52215331301831,39.927341365621565
翠屏里,47801,通州 梨园,梨园怡乐北街,多层,2.20元/平米/月,商品房住宅,2.20,236户,40%,1999年,地上价格50元/月,北京天行雅坤房地产开发有限公司,北京燕科物业管理有限责任公司,116.65514708444833,39.893038433428025
加州水郡(西区),33764,房山 长阳,昊天北大街48号,高层,1.70元/平米/月,商品房住宅,3.00,15000户,40%,2000年,150元/位・月 。地下车位180元/位・月，可购买，有产权证。,上海交大科技创业研究中心,北京永隆国际酒店物业管理有限公司,116.16881678813176,39.774246200518995
龙门新区(二区),23637,门头沟 门头沟周边,龙门西街,多层|小高层,0.65元/平米/月,商品房住宅,0.00,暂无数据,暂无数据,2013年,暂无数据,上海蒂沙物业管理有限公司,北京奥和物业管理有限公司,116.09255936389809,39.951869066891064
甘露园南里一社区(甘露园南里一区),55446,朝阳 甘露园,朝阳路,高层,0.50元/平米/月,商品房住宅,0.00,2016户,30%,2015年,车位比1:1,"上海塘头建材有限公司,中企物业管理有限公司",北京甘露家园物业管理有限责任公司,116.51966303048354,39.921017043338196
永泰西里(南区),72298,海淀 清河,永泰庄路,多层,0.65元/平米/月,商品房住宅,2.00,5862户,10%,1992年,地上车位150元/月,"磊讯实业有限公司,上海佳绿绿化有限公司",业主自管,116.361000358767,40.03896280289721
西罗园南里社区,55931,丰台 西罗园,南三环中路26号,多层|高层,0.50元/平米/月,商品房住宅,1.50,2285户,25%,1996年,地面车位150/车位,"上海敏信科技有限公司,上海仪电电子工程管理有限公司",北京金鹏顺发物业公司,116.31350470069069,39.91301465504606
